[{"name":"三家派出所","address":"彰化縣花壇鄉三春村彰員路1段565號","tel":"047862454","location":{"lat":24.0140998,"lng":120.5664618}},{"name":"三條派出所","address":"彰化縣溪州鄉三條村南九甲巷5號","tel":"048895432","location":{"lat":23.827325,"lng":120.495257}},{"name":"中和派出所","address":"彰化縣埤頭鄉中和村溪林路337號","tel":"048896155","location":{"lat":23.846618,"lng":120.459092}},{"name":"中寮派出所","address":"彰化縣和美鎮彰新路3段10號","tel":"047355184","location":{"lat":24.1053463,"lng":120.533212}},{"name":"中正派出所","address":"彰化縣彰化市西勢街150號","tel":"047636696","location":{"lat":24.082989,"lng":120.532385}},{"name":"中華路派出所","address":"彰化縣彰化市中華路193號","tel":"047223507","location":{"lat":24.0781307,"lng":120.5394675}},{"name":"二林分駐所","address":"彰化縣二林鎮斗苑路5段110號","tel":"048961072","location":{"lat":23.8995195,"lng":120.3697713}},{"name":"二水分駐所","address":"彰化縣二水鄉二水村員集路3段711號","tel":"048790015","location":{"lat":23.8113058,"lng":120.6155276}},{"name":"伸港分駐所","address":"彰化縣伸港鄉大同村中興路2段197號","tel":"047982044","location":{"lat":24.1595635,"lng":120.48561}},{"name":"內安派出所","address":"彰化縣田中鎮中南路2段601號","tel":"048742008","location":{"lat":23.8528649,"lng":120.6017838}},{"name":"八卦山派出所","address":"彰化縣彰化市中山路2段456號","tel":"047284292","location":{"lat":24.077499,"lng":120.5445065}},{"name":"北斗分局","address":"彰化縣北斗鎮光復路215號","tel":"048882010","location":{"lat":23.8747793,"lng":120.5239194}},{"name":"北斗派出所","address":"彰化縣北斗鎮光復路215號","tel":"048882604","location":{"lat":23.8747793,"lng":120.5239194}},{"name":"原斗派出所","address":"彰化縣二林鎮斗苑路1段917號","tel":"048902041","location":{"lat":23.8967039,"lng":120.426326}},{"name":"同安派出所","address":"彰化縣永靖鄉同安村永福路1段692號","tel":"048222159","location":{"lat":23.924156,"lng":120.5277471}},{"name":"和美分局","address":"彰化縣和美鎮彰美路5段328號","tel":"047552031","location":{"lat":24.111049,"lng":120.499646}},{"name":"和美派出所","address":"彰化縣和美鎮彰美路5段328號","tel":"047554005","location":{"lat":24.111049,"lng":120.499646}},{"name":"和興派出所","address":"彰化縣鹿港鎮中山路108號","tel":"047772119","location":{"lat":24.0528454,"lng":120.4359964}},{"name":"員林分局","address":"彰化縣員林鎮大同路1段319號","tel":"048320114","location":{"lat":23.9625518,"lng":120.5796087}},{"name":"員林派出所","address":"彰化縣員林鎮大同路1段319號","tel":"048320767","location":{"lat":23.9625518,"lng":120.5796087}},{"name":"嘉犁派出所","address":"彰化縣和美鎮彰美路3段418號","tel":"047555574","location":{"lat":24.1031567,"lng":120.5165046}},{"name":"埔心分駐所","address":"彰化縣埔心鄉義民村員鹿路2段424號","tel":"048291545","location":{"lat":23.9530096,"lng":120.5419048}},{"name":"埔東派出所","address":"彰化縣埔鹽鄉埔鹽村中正路48號","tel":"048653784","location":{"lat":23.996781,"lng":120.475442}},{"name":"埔鹽分駐所","address":"彰化縣埔鹽鄉好修村員鹿路2段160號","tel":"048653553","location":{"lat":24.0074565,"lng":120.4598586}},{"name":"埤頭分駐所","address":"彰化縣埤頭鄉合興村斗苑西路305號","tel":"048922041","location":{"lat":23.8918255,"lng":120.4580738}},{"name":"塗厝派出所","address":"彰化縣和美鎮塗厝里和厝路2段341號","tel":"047555584","location":{"lat":24.1341571,"lng":120.5059262}},{"name":"外中派出所","address":"彰化縣福興鄉外中村外中街237號","tel":"047792048","location":{"lat":24.0175924,"lng":120.4720358}},{"name":"大城分駐所","address":"彰化縣大城鄉東城村東平路114號","tel":"048941012","location":{"lat":23.8554272,"lng":120.3226768}},{"name":"大村分駐所","address":"彰化縣大村鄉大村村茄苳路1段50號","tel":"048522014","location":{"lat":23.9949799,"lng":120.5446865}},{"name":"大竹派出所","address":"彰化縣彰化市彰南路2段160號","tel":"047381107","location":{"lat":24.0848612,"lng":120.5805945}},{"name":"大霞派出所","address":"彰化縣和美鎮彰和路3段420號","tel":"047555564","location":{"lat":24.1016306,"lng":120.5039474}},{"name":"安山派出所","address":"彰化縣芬園鄉大彰路3段147巷63號","tel":"048590056","location":{"lat":23.995929,"lng":120.611581}},{"name":"彰化分局","address":"彰化縣彰化市民生路234號","tel":"047222439","location":{"lat":24.0805594,"lng":120.54283}},{"name":"彰化縣警察局","address":"彰化縣彰化市中正路2段778號","tel":"047619881","location":{"lat":24.0658804,"lng":120.5345481}},{"name":"忠覺派出所","address":"彰化縣溪湖鎮崙仔腳路66號","tel":"048852814","location":{"lat":23.9481613,"lng":120.4942776}},{"name":"快官派出所","address":"彰化縣彰化市彰南路5段26號","tel":"047381006","location":{"lat":24.0682929,"lng":120.6133466}},{"name":"成功派出所","address":"彰化縣溪州鄉成功村庄中路20號","tel":"048802163","location":{"lat":23.8261512,"lng":120.5470277}},{"name":"朝興派出所","address":"彰化縣社頭鄉朝興村水源路12號","tel":"048732174","location":{"lat":23.9034569,"lng":120.6099936}},{"name":"村上派出所","address":"彰化縣大村鄉村上村中山路2段246號","tel":"048525474","location":{"lat":23.9891966,"lng":120.5643341}},{"name":"東山派出所","address":"彰化縣員林鎮山腳路4段2號","tel":"048313374","location":{"lat":23.9636249,"lng":120.6006609}},{"name":"林厝派出所","address":"彰化縣員林鎮山腳路1段462號","tel":"048313012","location":{"lat":23.9436408,"lng":120.6008646}},{"name":"民族路派出所","address":"彰化縣彰化市南瑤路257號","tel":"047228433","location":{"lat":24.0717711,"lng":120.539929}},{"name":"民生路派出所","address":"彰化縣彰化市民生路322號","tel":"047228644","location":{"lat":24.0833998,"lng":120.5424338}},{"name":"永安派出所","address":"彰化縣竹塘鄉永安村東陽路2段221號","tel":"048972684","location":{"lat":23.8466168,"lng":120.3825648}},{"name":"永靖分駐所","address":"彰化縣永靖鄉永東村中山路2段17號","tel":"048221813","location":{"lat":23.9202761,"lng":120.5473711}},{"name":"泰和派出所","address":"彰化縣彰化市泰和路2段399號","tel":"047237560","location":{"lat":24.095695,"lng":120.5560799}},{"name":"洪堀派出所","address":"彰化縣福興鄉秀厝村福三路3段468號","tel":"047704441","location":{"lat":24.0299458,"lng":120.4267106}},{"name":"海埔派出所","address":"彰化縣鹿港鎮鹿草路2段909號","tel":"047775565","location":{"lat":24.0845005,"lng":120.4442964}},{"name":"海豐派出所","address":"彰化縣田尾鄉陸豐村民生路3段280號","tel":"048222160","location":{"lat":23.9176727,"lng":120.502695}},{"name":"源泉派出所","address":"彰化縣二水鄉倡和村員集路1段410之1號","tel":"048792374","location":{"lat":23.8004798,"lng":120.6549976}},{"name":"溪州分駐所","address":"彰化縣溪州鄉溪州村中山路3段292號","tel":"048895029","location":{"lat":23.8528921,"lng":120.4934717}},{"name":"溪湖分局","address":"彰化縣溪湖鎮青雅路88號","tel":"048852026","location":{"lat":23.9668453,"lng":120.4833772}},{"name":"溪湖派出所","address":"彰化縣溪湖鎮員鹿路3段262號","tel":"048852404","location":{"lat":23.9626307,"lng":120.4795263}},{"name":"漢寶派出所","address":"彰化縣芳苑鄉漢寶村草漢路漢寶段495號","tel":"048991219","location":{"lat":24.0047635,"lng":120.3847213}},{"name":"王功派出所","address":"彰化縣芳苑鄉王功村芳漢路王功段600號","tel":"048932151","location":{"lat":23.9659257,"lng":120.3414482}},{"name":"田中分局","address":"彰化縣田中鎮興酪路1段299號","tel":"048756910","location":{"lat":23.8455794,"lng":120.5736787}},{"name":"田中派出所","address":"彰化縣田中鎮斗中路1段6號","tel":"048742051","location":{"lat":23.8601987,"lng":120.5844841}},{"name":"田尾分駐所","address":"彰化縣田尾鄉田尾村光復路3段138號","tel":"048832854","location":{"lat":23.8925121,"lng":120.5262477}},{"name":"社頭分駐所","address":"彰化縣社頭鄉社頭村員集路2段210號","tel":"048732036","location":{"lat":23.8985571,"lng":120.5880274}},{"name":"福興分駐所","address":"彰化縣福興鄉橋頭村彰鹿路7段489號","tel":"047775405","location":{"lat":24.0479203,"lng":120.4441944}},{"name":"秀安派出所","address":"彰化縣秀水鄉安溪村安溪街57號","tel":"047692304","location":{"lat":24.0417716,"lng":120.5091673}},{"name":"秀水分駐所","address":"彰化縣秀水鄉埔崙村民生街789號","tel":"047692964","location":{"lat":24.0254526,"lng":120.4947034}},{"name":"竹塘分駐所","address":"彰化縣竹塘鄉竹塘村竹林路1段255號","tel":"048972014","location":{"lat":23.8595832,"lng":120.427731}},{"name":"線西分駐所","address":"彰化縣線西鄉寓埔村中央路2段65號","tel":"047582247","location":{"lat":24.13106,"lng":120.470546}},{"name":"縣庄派出所","address":"彰化縣芬園鄉圳墘村彰南路2段131號","tel":"0492525151","location":{"lat":23.9877809,"lng":120.637522}},{"name":"舊館派出所","address":"彰化縣埔心鄉舊館村員鹿路4段182號","tel":"048292854","location":{"lat":23.9483922,"lng":120.5259063}},{"name":"芬園分駐所","address":"彰化縣芬園鄉社口村彰南路4段175號","tel":"0492522419","location":{"lat":24.0150316,"lng":120.6285929}},{"name":"花壇分駐所","address":"彰化縣花壇鄉長沙村中正路1號","tel":"047862014","location":{"lat":24.0283377,"lng":120.54898}},{"name":"芳苑分局","address":"彰化縣芳苑鄉三合村斗苑路三合段522號","tel":"048960013","location":{"lat":23.9014024,"lng":120.358041}},{"name":"芳苑派出所","address":"彰化縣芳苑鄉仁愛村芳新路20號","tel":"048983432","location":{"lat":23.92509,"lng":120.3157133}},{"name":"草港派出所","address":"彰化縣鹿港鎮草中里草港巷125號","tel":"047713404","location":{"lat":24.1064888,"lng":120.457894}},{"name":"草湖派出所","address":"彰化縣芳苑鄉建平村二溪路草2段272號","tel":"048862438","location":{"lat":23.9534063,"lng":120.3827356}},{"name":"莒光派出所","address":"彰化縣員林鎮莒光路470號","tel":"048357857","location":{"lat":23.9622416,"lng":120.566652}},{"name":"莿桐派出所","address":"彰化縣彰化市彰鹿路6號","tel":"047523151","location":{"lat":24.0638359,"lng":120.5199323}},{"name":"萬興派出所","address":"彰化縣二林鎮二溪路6段395號","tel":"048682039","location":{"lat":23.9539898,"lng":120.4207765}},{"name":"西港派出所","address":"彰化縣大城鄉東港村中央路10號","tel":"048941334","location":{"lat":23.8630956,"lng":120.289649}},{"name":"路上派出所","address":"彰化縣芳苑鄉路平村上林路路上段338號","tel":"048983844","location":{"lat":23.8929531,"lng":120.3410333}},{"name":"頂番派出所","address":"彰化縣鹿港鎮鹿和路4段25號","tel":"047711934","location":{"lat":24.0861934,"lng":120.4813211}},{"name":"馬鳴派出所","address":"彰化縣秀水鄉鶴鳴村彰鹿路98號","tel":"047692082","location":{"lat":24.0511254,"lng":120.5054048}},{"name":"鹿港分局","address":"彰化縣鹿港鎮東興路300號","tel":"047772001","location":{"lat":24.0591422,"lng":120.4379693}},{"name":"鹿港派出所","address":"彰化縣鹿港鎮中山路300號","tel":"047772118","location":{"lat":24.0571203,"lng":120.4334071}},{"name":"三和派出所","address":"嘉義縣中埔鄉和興村中華路827號","tel":"052309091","location":{"lat":23.4493369,"lng":120.459088}},{"name":"三江派出所","address":"嘉義縣東石鄉三家村1號","tel":"053732501","location":{"lat":23.4763254,"lng":120.1687739}},{"name":"下楫派出所","address":"嘉義縣東石鄉下楫村137號","tel":"053601849","location":{"lat":0,"lng":0}},{"name":"下潭派出所","address":"嘉義縣鹿草鄉光潭村152號","tel":"053651303","location":{"lat":23.4074195,"lng":120.3118982}},{"name":"中和派出所","address":"嘉義縣竹崎鄉中和村奮起湖2鄰24號","tel":"052561054","location":{"lat":23.503085,"lng":120.695093}},{"name":"中埔分局","address":"嘉義縣中埔鄉中埔村中正路66號","tel":"052531013","location":{"lat":23.424845,"lng":120.5237792}},{"name":"中埔派出所","address":"嘉義縣中埔鄉中埔村中正路66號","tel":"052531203","location":{"lat":23.424845,"lng":120.5237792}},{"name":"中莊派出所","address":"嘉義縣水上鄉中庄村66號","tel":"052890654","location":{"lat":23.4488335,"lng":120.4135062}},{"name":"仁和派出所","address":"嘉義縣竹崎鄉獅埜村1鄰東義8號","tel":"052110056","location":{"lat":23.511838,"lng":120.490841}},{"name":"仁壽派出所","address":"嘉義縣竹崎鄉仁壽村2鄰交力坪30號","tel":"052501454","location":{"lat":23.5316999,"lng":120.6435691}},{"name":"來吉派出所","address":"嘉義縣阿里山鄉來吉村來吉4鄰95號","tel":"052661185","location":{"lat":23.5342072,"lng":120.769476}},{"name":"光榮派出所","address":"嘉義縣義竹鄉東光村7號","tel":"053411223","location":{"lat":23.3721221,"lng":120.2442687}},{"name":"內埔派出所","address":"嘉義縣竹崎鄉內埔村元興路112號","tel":"052541040","location":{"lat":23.4850722,"lng":120.5594587}},{"name":"公田派出所","address":"嘉義縣番路鄉公田村隙頂100號","tel":"052586114","location":{"lat":23.4480903,"lng":120.6487508}},{"name":"六家派出所","address":"嘉義縣六腳鄉六腳村5號","tel":"053780843","location":{"lat":23.5060138,"lng":120.2541635}},{"name":"六美派出所","address":"嘉義縣六腳鄉港美村28號","tel":"053802244","location":{"lat":23.5543786,"lng":120.2934429}},{"name":"六腳分駐所","address":"嘉義縣六腳鄉蒜頭村75號","tel":"053802008","location":{"lat":23.504076,"lng":120.2556688}},{"name":"北斗派出所","address":"嘉義縣民雄鄉北斗村北勢子17號","tel":"052213731","location":{"lat":23.5341559,"lng":120.4571413}},{"name":"北美派出所","address":"嘉義縣六腳鄉崙陽村崙子183號","tel":"057811105","location":{"lat":23.5596288,"lng":120.3032174}},{"name":"十字派出所","address":"嘉義縣阿里山鄉十字村1鄰28號","tel":"052511223","location":{"lat":23.5030329,"lng":120.7407425}},{"name":"南新派出所","address":"嘉義縣太保市北港路2段50號","tel":"052373022","location":{"lat":23.49663,"lng":120.383263}},{"name":"南港派出所","address":"嘉義縣新港鄉南港村南港1號","tel":"057811618","location":{"lat":23.5609839,"lng":120.3178449}},{"name":"南靖派出所","address":"嘉義縣水上鄉三鎮村三鎮路51號","tel":"052682364","location":{"lat":23.4147098,"lng":120.3863605}},{"name":"同仁派出所","address":"嘉義縣中埔鄉同仁村同仁99號","tel":"052531201","location":{"lat":23.4055702,"lng":120.5126441}},{"name":"嘉義縣警察局","address":"嘉義縣太保市祥和一路東段3號","tel":"053620237 ","location":{"lat":23.4586716,"lng":120.2948447}},{"name":"埤頭派出所","address":"嘉義縣新港鄉埤子村埤仔頭32號","tel":"053760853","location":{"lat":23.5865354,"lng":120.365642}},{"name":"大南派出所","address":"嘉義縣梅山鄉大南村南勢坑48號","tel":"052621412","location":{"lat":23.5529512,"lng":120.5516149}},{"name":"大埔分駐所","address":"嘉義縣大埔鄉大埔村大埔134號","tel":"052521034","location":{"lat":23.2992456,"lng":120.5942895}},{"name":"大林分駐所","address":"嘉義縣大林鎮中山路86之2號","tel":"052652850","location":{"lat":23.6028944,"lng":120.4551036}},{"name":"大美派出所","address":"嘉義縣大林鎮大美里大埔美1號","tel":"052952905","location":{"lat":23.6026044,"lng":120.5047752}},{"name":"大鄉派出所","address":"嘉義縣朴子市大鄉里223號","tel":"053792091","location":{"lat":23.4607681,"lng":120.2417034}},{"name":"太保分駐所","address":"嘉義縣太保市太保里23號","tel":"053711555","location":{"lat":23.4543028,"lng":120.3318657}},{"name":"太和派出所","address":"嘉義縣梅山鄉太和村蛤里味24號","tel":"052661055","location":{"lat":23.5336678,"lng":120.7210818}},{"name":"太平派出所","address":"嘉義縣梅山鄉太平村大坪42號","tel":"052571202","location":{"lat":23.580963,"lng":120.5617366}},{"name":"安和派出所","address":"嘉義縣新港鄉安和村16鄰番婆16號","tel":"053772104","location":{"lat":23.5140515,"lng":120.3149144}},{"name":"山美派出所","address":"嘉義縣阿里山鄉山美村山美57號","tel":"052586154","location":{"lat":23.3837544,"lng":120.6683316}},{"name":"布袋分局","address":"嘉義縣布袋鎮自由路3號","tel":"053472574","location":{"lat":23.3785273,"lng":120.166503}},{"name":"布袋派出所","address":"嘉義縣布袋鎮光復里自由路3號1樓","tel":"053472047","location":{"lat":23.3785273,"lng":120.166503}},{"name":"後堀派出所","address":"嘉義縣鹿草鄉後堀村61號","tel":"053752444","location":{"lat":23.4123265,"lng":120.3150959}},{"name":"復金派出所","address":"嘉義縣竹崎鄉復金村11鄰52號","tel":"052611254","location":{"lat":23.5056987,"lng":120.5744997}},{"name":"成功派出所","address":"嘉義縣水上鄉三界村156號","tel":"052392064","location":{"lat":23.4325631,"lng":120.4751497}},{"name":"新埤派出所","address":"嘉義縣太保市舊埤里新埤9號","tel":"053612280","location":{"lat":23.490933,"lng":120.3328971}},{"name":"新塭派出所","address":"嘉義縣布袋鎮新民路293號","tel":"053431154","location":{"lat":23.4605691,"lng":120.2450381}},{"name":"新店派出所","address":"嘉義縣義竹鄉新店村1號","tel":"053426104","location":{"lat":23.3592224,"lng":120.22046}},{"name":"新港分駐所","address":"嘉義縣新港鄉大興村中正路47號","tel":"053742009","location":{"lat":23.5567961,"lng":120.3464056}},{"name":"新美派出所","address":"嘉義縣阿里山鄉新美村新美56號","tel":"052513079","location":{"lat":23.3379326,"lng":120.6842327}},{"name":"景山派出所","address":"嘉義縣布袋鎮東港里埔仔庴34號","tel":"053472607","location":{"lat":23.3750467,"lng":120.1950093}},{"name":"月眉派出所","address":"嘉義縣新港鄉月潭村月眉潭204號","tel":"053772524","location":{"lat":23.5226534,"lng":120.3518377}},{"name":"朴子分局","address":"嘉義縣朴子市光復路33號","tel":"053793584","location":{"lat":23.4651891,"lng":120.2463659}},{"name":"朴子派出所","address":"嘉義縣朴子市光復路33號","tel":"053792014","location":{"lat":23.4651891,"lng":120.2463659}},{"name":"東石分駐所","address":"嘉義縣東石鄉東石村36號","tel":"053732240","location":{"lat":23.4556249,"lng":120.1503222}},{"name":"東興派出所","address":"嘉義縣中埔鄉東興村凍子腳17號","tel":"052532050","location":{"lat":23.35124,"lng":120.53121}},{"name":"松梅派出所","address":"嘉義縣朴子市梅華里牛挑灣108號","tel":"053691572","location":{"lat":23.4098967,"lng":120.2555848}},{"name":"柳林派出所","address":"嘉義縣水上鄉柳鄉村柳子林119號","tel":"052682515","location":{"lat":23.4382366,"lng":120.4176425}},{"name":"柳溝派出所","address":"嘉義縣溪口鄉柳溝村阿連庄7號","tel":"052691182","location":{"lat":23.590019,"lng":120.423773}},{"name":"梅山分駐所","address":"嘉義縣梅山鄉梅東村中山路68號","tel":"052621003","location":{"lat":23.5816151,"lng":120.5590041}},{"name":"樂野分駐所","address":"嘉義縣阿里山鄉中和村20鄰石棹22之6號","tel":"052561325","location":{"lat":0,"lng":0}},{"name":"民興派出所","address":"嘉義縣民雄鄉興中村江厝店10號","tel":"052213735","location":{"lat":23.5259029,"lng":120.4206594}},{"name":"民雄分局","address":"嘉義縣民雄鄉東榮村民族路21號","tel":"052262014","location":{"lat":23.5551937,"lng":120.4301903}},{"name":"民雄派出所","address":"嘉義縣民雄鄉東榮村民族路21號","tel":"052262192","location":{"lat":23.5551937,"lng":120.4301903}},{"name":"水上分局","address":"嘉義縣水上鄉水頭村中興路528號","tel":"052682025","location":{"lat":23.4323906,"lng":120.3991468}},{"name":"水上派出所","address":"嘉義縣水上鄉水上村中山路2段291號","tel":"052682264","location":{"lat":23.432752,"lng":120.397461}},{"name":"永竹派出所","address":"嘉義縣六腳鄉竹本村9之26號","tel":"053780845","location":{"lat":23.504076,"lng":120.2556688}},{"name":"港墘派出所","address":"嘉義縣東石鄉港墘村91號","tel":"053793564","location":{"lat":23.4763254,"lng":120.1687739}},{"name":"溝背派出所","address":"嘉義縣大林鎮義和里三塊厝2號","tel":"052952902","location":{"lat":23.6139658,"lng":120.4874408}},{"name":"溪口分駐所","address":"嘉義縣溪口鄉溪東村中正路142號","tel":"052691009","location":{"lat":23.604454,"lng":120.396022}},{"name":"瑞里派出所","address":"嘉義縣梅山鄉瑞里村幼葉林120號","tel":"052501041","location":{"lat":23.540339,"lng":120.6650806}},{"name":"番路分駐所","address":"嘉義縣番路鄉下坑村菜公店27號","tel":"052591212","location":{"lat":23.4644473,"lng":120.5547988}},{"name":"竹崎分局","address":"嘉義縣竹崎鄉竹崎村中山路72號","tel":"052611089","location":{"lat":23.5231089,"lng":120.5508755}},{"name":"竹崎派出所","address":"嘉義縣竹崎鄉竹崎村中山路72號","tel":"052611336","location":{"lat":23.5231089,"lng":120.5508755}},{"name":"竹村派出所","address":"嘉義縣朴子市竹村里14之6號","tel":"053693219","location":{"lat":23.4404486,"lng":120.2460686}},{"name":"義仁派出所","address":"嘉義縣中埔鄉隆興村汴頭11號","tel":"052531202","location":{"lat":23.4409033,"lng":120.5331324}},{"name":"義竹分駐所","address":"嘉義縣義竹鄉仁里村359之5號","tel":"053412009","location":{"lat":23.3357439,"lng":120.2393579}},{"name":"菁埔派出所","address":"嘉義縣民雄鄉菁埔村菁埔138號","tel":"052263510","location":{"lat":23.5566013,"lng":120.3986619}},{"name":"觸口派出所","address":"嘉義縣番路鄉觸口村觸口147號","tel":"052591358","location":{"lat":23.439739,"lng":120.60121}},{"name":"豐收派出所","address":"嘉義縣民雄鄉豐收村好收路48號","tel":"052262732","location":{"lat":23.562694,"lng":120.450899}},{"name":"過溝派出所","address":"嘉義縣布袋鎮中安里110號","tel":"053451064","location":{"lat":23.4154483,"lng":120.1778483}},{"name":"過路派出所","address":"嘉義縣義竹鄉西過村301號","tel":"053436575","location":{"lat":23.3083554,"lng":120.1993381}},{"name":"達邦分駐所","address":"嘉義縣阿里山鄉達邦村達邦25號","tel":"052511006","location":{"lat":23.4513821,"lng":120.7395662}},{"name":"里佳派出所","address":"嘉義縣阿里山鄉里佳村里佳50號","tel":"052511124","location":{"lat":23.4056017,"lng":120.7207948}},{"name":"阿里山派出所","address":"嘉義縣阿里山鄉中正村62號","tel":"052679975","location":{"lat":23.5132,"lng":120.811682}},{"name":"雙溪派出所","address":"嘉義縣朴子市溪口里145號","tel":"053794553","location":{"lat":23.4579733,"lng":120.284874}},{"name":"頂六派出所","address":"嘉義縣中埔鄉富收村頂中下街60號","tel":"052393984","location":{"lat":23.4482771,"lng":120.4911688}},{"name":"鹿滿派出所","address":"嘉義縣竹崎鄉鹿滿村鹿鳴路56號","tel":"052611255","location":{"lat":23.4979558,"lng":120.5322971}},{"name":"鹿草分駐所","address":"嘉義縣鹿草鄉西井村286號","tel":"053752302","location":{"lat":23.4106821,"lng":120.3546954}},{"name":"龍山派出所","address":"嘉義縣竹崎鄉龍山村瓦厝埔5號","tel":"052611256","location":{"lat":23.5181841,"lng":120.5760999}},{"name":"龍崗派出所","address":"嘉義縣東石鄉東崙村62號","tel":"053451740","location":{"lat":23.4763254,"lng":120.1687739}},{"name":"三民派出所","address":"新竹縣竹北市三民路345號","tel":"035556270","location":{"lat":24.8335365,"lng":121.0110939}},{"name":"上坪派出所","address":"新竹縣竹東鎮上坪里7鄰86號","tel":"035961744","location":{"lat":24.6637137,"lng":121.1203437}},{"name":"下公館派出所","address":"新竹縣竹東鎮中豐路1段88號","tel":"035948392","location":{"lat":24.7233815,"lng":121.0985873}},{"name":"中華派出所","address":"新竹市香山區大庄路105號","tel":"035302487","location":{"lat":24.791617,"lng":120.9262289}},{"name":"二重埔派出所","address":"新竹縣竹東鎮中興路3段95號","tel":"035823504","location":{"lat":24.7661855,"lng":121.0569414}},{"name":"五峰分駐所","address":"新竹縣五峰鄉大隘村6鄰96號","tel":"035851029","location":{"lat":24.6317389,"lng":121.1198271}},{"name":"內灣派出所","address":"新竹縣橫山鄉內灣村4鄰141號","tel":"035849164","location":{"lat":24.706287,"lng":121.1825132}},{"name":"六家派出所","address":"新竹縣竹北市自強北路81號","tel":"035680308","location":{"lat":24.82236,"lng":121.0299836}},{"name":"北埔分駐所","address":"新竹縣北埔鄉南興村南興街70號","tel":"035802214","location":{"lat":24.6990281,"lng":121.0571229}},{"name":"北門派出所","address":"新竹市北區北大路218號","tel":"035222223","location":{"lat":24.8080211,"lng":120.9650338}},{"name":"南寮派出所","address":"新竹市北區東大路3段541號","tel":"035362334","location":{"lat":24.8404925,"lng":120.9373534}},{"name":"南華派出所","address":"新竹縣關西鎮中山東路100號","tel":"035872301","location":{"lat":24.7900977,"lng":121.1822149}},{"name":"南門派出所","address":"新竹市東區勝利路85號","tel":"035222224","location":{"lat":24.8002127,"lng":120.9675643}},{"name":"嘉樂派出所","address":"新竹縣尖石鄉嘉樂村2鄰麥樹仁41號","tel":"035841144","location":{"lat":24.7053955,"lng":121.2012306}},{"name":"坪林派出所","address":"新竹縣關西鎮石光里9鄰392號","tel":"035868060","location":{"lat":24.8138181,"lng":121.1283651}},{"name":"埔頂派出所","address":"新竹市東區光復路1段568號","tel":"035773999","location":{"lat":24.7890292,"lng":121.0078543}},{"name":"宇老派出所","address":"新竹縣尖石鄉玉峰村1鄰宇老1號","tel":"035847238","location":{"lat":24.5735311,"lng":121.3655989}},{"name":"富興派出所","address":"新竹縣峨眉鄉富興村太平街4號","tel":"035806584","location":{"lat":24.6869386,"lng":120.9878944}},{"name":"寶山分駐所","address":"新竹縣寶山鄉雙溪村三峰路2段636號","tel":"035204139","location":{"lat":24.752589,"lng":120.9793704}},{"name":"寶石派出所","address":"新竹縣新埔鎮寶石里文德路2段599號","tel":"035882064","location":{"lat":24.8163834,"lng":121.0777458}},{"name":"尖石分駐所","address":"新竹縣尖石鄉嘉樂村2鄰麥樹仁41號","tel":"035841144","location":{"lat":24.7053955,"lng":121.2012306}},{"name":"山崎派出所","address":"新竹縣新豐鄉員山村松林街8號","tel":"035592736","location":{"lat":24.8696101,"lng":120.9914837}},{"name":"峨眉分駐所","address":"新竹縣峨眉鄉峨眉村峨嵋街1號","tel":"035800344","location":{"lat":24.6882371,"lng":121.0216081}},{"name":"後湖派出所","address":"新竹縣新豐鄉後湖村6鄰後湖子115號","tel":"035680164","location":{"lat":24.9339628,"lng":121.0134406}},{"name":"文華派出所","address":"新竹市東區經國路1段488號","tel":"035332120","location":{"lat":24.8146167,"lng":120.9770662}},{"name":"新城派出所","address":"新竹縣寶山鄉新城村寶新路2段658號","tel":"035762353","location":{"lat":24.7327963,"lng":120.966293}},{"name":"新埔分局","address":"新竹縣新埔鎮中正路475號","tel":"035882004","location":{"lat":24.8277776,"lng":121.0743432}},{"name":"新埔派出所","address":"新竹縣新埔鎮中正路475號","tel":"035882034","location":{"lat":24.8277776,"lng":121.0743432}},{"name":"新工派出所","address":"新竹縣湖口鄉鳳凰村文化路172號","tel":"035981561","location":{"lat":24.8726933,"lng":121.018162}},{"name":"新樂派出所","address":"新竹縣尖石鄉新樂村1鄰水田30號","tel":"035841676","location":{"lat":24.7325088,"lng":121.2512563}},{"name":"新竹市警察局","address":"新竹市北區中山路1號","tel":"035249234","location":{"lat":24.8513776,"lng":120.942174}},{"name":"新竹縣政府警察局","address":"新竹縣竹北市光明六路12號","tel":"035513523","location":{"lat":24.8266874,"lng":121.0111427}},{"name":"新豐分駐所","address":"新竹縣新豐鄉重興村建與路2段788號","tel":"035594052","location":{"lat":24.8966144,"lng":120.9905}},{"name":"朝山派出所","address":"新竹市香山區中華路5段690號","tel":"035373165","location":{"lat":24.7661971,"lng":120.9146966}},{"name":"東勢派出所","address":"新竹市東區光復路2段798號","tel":"035728758","location":{"lat":24.8014595,"lng":120.9864209}},{"name":"東安派出所","address":"新竹縣關西鎮中山東路100號","tel":"035872301","location":{"lat":24.7900977,"lng":121.1822149}},{"name":"東門派出所","address":"新竹市東區東門街87號","tel":"035222607","location":{"lat":24.8040778,"lng":120.9698587}},{"name":"桃山派出所","address":"新竹縣五峰鄉桃山村2鄰桃山20號","tel":"035856043","location":{"lat":24.5965018,"lng":121.1089755}},{"name":"梅花派出所","address":"新竹縣尖石鄉梅花村1鄰梅花26號","tel":"035841681","location":{"lat":24.6782676,"lng":121.208845}},{"name":"楓橋派出所","address":"新竹縣寶山鄉寶山村新湖路1段415號","tel":"035761140","location":{"lat":24.7336798,"lng":121.0278153}},{"name":"樹林頭派出所","address":"新竹市北區竹光路290號","tel":"035267652","location":{"lat":24.8102833,"lng":120.9556021}},{"name":"橫山分局","address":"新竹縣橫山鄉新興村新興街103號","tel":"035931004","location":{"lat":24.7164782,"lng":121.1414926}},{"name":"橫山派出所","address":"新竹縣橫山鄉新興村新興街103號","tel":"035931002","location":{"lat":24.7164782,"lng":121.1414926}},{"name":"橫村派出所","address":"新竹縣橫山鄉橫山村1鄰治安街1號","tel":"035934387","location":{"lat":24.7184825,"lng":121.1179987}},{"name":"沙坑派出所","address":"新竹縣橫山鄉沙坑村6鄰中豐路3段10巷1號","tel":"035811054","location":{"lat":24.7367321,"lng":121.1629087}},{"name":"泰崗派出所","address":"新竹縣尖石鄉秀巒村7鄰泰岡88號","tel":"035847322","location":{"lat":24.6138884,"lng":121.2932851}},{"name":"清泉派出所","address":"新竹縣五峰鄉桃山村16鄰清泉277號","tel":"035856045","location":{"lat":24.5734336,"lng":121.1036643}},{"name":"湖口分駐所","address":"新竹縣湖口鄉孝勢村中山路2段114號","tel":"035992034","location":{"lat":24.9017053,"lng":121.0437668}},{"name":"湖鏡派出所","address":"新竹縣湖口鄉湖口村八德路2段142巷11號","tel":"035690646","location":{"lat":24.8780787,"lng":121.0588446}},{"name":"湳雅派出所","address":"新竹市北區湳雅街116號","tel":"035356710","location":{"lat":24.8196086,"lng":120.9729998}},{"name":"照門派出所","address":"新竹縣新埔鎮照門里9鄰照鏡26號","tel":"035899194","location":{"lat":24.8470147,"lng":121.1155231}},{"name":"玉山派出所","address":"新竹縣關西鎮錦山里2鄰21號","tel":"035478174","location":{"lat":24.7719147,"lng":121.2317808}},{"name":"玉峰派出所","address":"新竹縣五峰鄉玉峰村5鄰玉峰55號","tel":"035847202","location":{"lat":0,"lng":0}},{"name":"石光派出所","address":"新竹縣關西鎮石光里9鄰392號","tel":"035868060","location":{"lat":24.8138181,"lng":121.1283651}},{"name":"秀巒派出所","address":"新竹縣尖石鄉秀巒村4鄰控溪20號","tel":"035847523","location":{"lat":24.618444,"lng":121.285208}},{"name":"秀湖派出所","address":"新竹縣芎林鄉秀湖村五和街5號","tel":"035932812","location":{"lat":24.7340071,"lng":121.1169439}},{"name":"竹北分局","address":"新竹縣竹北市博愛街16號","tel":"035552029","location":{"lat":24.8288364,"lng":121.0030729}},{"name":"竹北派出所","address":"新竹縣竹北市中華路383號","tel":"035552031","location":{"lat":24.8384417,"lng":121.0050305}},{"name":"竹東分局","address":"新竹縣竹東鎮康寧街93號","tel":"035962081","location":{"lat":24.7372911,"lng":121.086818}},{"name":"竹東派出所","address":"新竹縣竹東鎮康寧街93號","tel":"035962057","location":{"lat":24.7372911,"lng":121.086818}},{"name":"第一分局","address":"新竹市北區竹光路290號","tel":"035222725","location":{"lat":24.8102833,"lng":120.9556021}},{"name":"第三分局","address":"新竹市香山區牛埔路432號","tel":"035380040","location":{"lat":24.7976078,"lng":120.9426207}},{"name":"第二分局","address":"新竹市東區光復路2段798號","tel":"035728750","location":{"lat":24.8014595,"lng":120.9864209}},{"name":"羅山派出所","address":"新竹縣五峰鄉竹林村1鄰羅山20號","tel":"035851214","location":{"lat":24.6247793,"lng":121.1478556}},{"name":"芎林分駐所","address":"新竹縣芎林鄉文山路349號","tel":"035924572","location":{"lat":24.7748841,"lng":121.0809874}},{"name":"花園派出所","address":"新竹縣五峰鄉花園村5鄰93號","tel":"035851147","location":{"lat":24.6460695,"lng":121.1511382}},{"name":"茅圃派出所","address":"新竹縣五峰鄉大隘村22鄰435號","tel":"035851149","location":{"lat":24.603381,"lng":121.094076}},{"name":"褒忠派出所","address":"新竹縣新埔鎮下寮里12鄰義民路3段329號","tel":"035882094","location":{"lat":24.8431449,"lng":121.0359919}},{"name":"西門派出所","address":"新竹市北區中山路300號","tel":"035222452","location":{"lat":24.8019993,"lng":120.9612012}},{"name":"豐田派出所","address":"新竹縣竹北市中正西路1550號","tel":"035564768","location":{"lat":24.8426972,"lng":120.9641185}},{"name":"那羅派出所","address":"新竹縣尖石鄉錦屏村8鄰那羅41號","tel":"035841682","location":{"lat":24.6801544,"lng":121.2423188}},{"name":"錦山派出所","address":"新竹縣關西鎮錦山里2鄰21號","tel":"035478174","location":{"lat":24.7719147,"lng":121.2317808}},{"name":"關東橋派出所","address":"新竹市東區介壽路200號","tel":"035775758","location":{"lat":24.7788586,"lng":121.0189334}},{"name":"關西分駐所","address":"新竹縣關西鎮中正路92號","tel":"035872007","location":{"lat":24.7898763,"lng":121.1766028}},{"name":"雲山派出所","address":"新竹縣五峰鄉桃山村清泉12鄰202之3號","tel":"035856689","location":{"lat":24.5753,"lng":121.102272}},{"name":"青草湖派出所","address":"新竹市東區明湖路666號","tel":"035201563","location":{"lat":24.774013,"lng":120.9663914}},{"name":"香山派出所","address":"新竹市香山區牛埔路432號","tel":"035386348","location":{"lat":24.7976078,"lng":120.9426207}},{"name":"高鐵派出所","address":"新竹縣竹北市隘口二路175號","tel":"036578272 ","location":{"lat":24.8049872,"lng":121.0383215}},{"name":"鳳岡派出所","address":"新竹縣竹北市鳳岡路3段238號","tel":"035561769","location":{"lat":24.8610313,"lng":120.9634914}},{"name":"三民派出所","address":"花蓮縣玉里鎮三民里9鄰三民25號","tel":"038841496","location":{"lat":23.4121446,"lng":121.3484448}},{"name":"中山派出所","address":"花蓮縣花蓮市林森路232號","tel":"038328343","location":{"lat":23.9813521,"lng":121.6054674}},{"name":"中平派出所","address":"花蓮縣卓溪鄉太平村9鄰中興20-3號","tel":"038887357","location":{"lat":0,"lng":0}},{"name":"中正派出所","address":"花蓮縣花蓮市中正路448號","tel":"038326822","location":{"lat":23.9753654,"lng":121.6050633}},{"name":"中華派出所","address":"花蓮縣花蓮市中華路300號","tel":"038328342","location":{"lat":23.9751625,"lng":121.5985055}},{"name":"仁里派出所","address":"花蓮縣吉安鄉中正路1段38號","tel":"038527894","location":{"lat":23.967851,"lng":121.5932102}},{"name":"佳民派出所","address":"花蓮縣秀林鄉佳民村8鄰佳民123號","tel":"038263274","location":{"lat":24.0542043,"lng":121.5999361}},{"name":"光復分駐所","address":"花蓮縣光復鄉中正路1段127號","tel":"038701074","location":{"lat":23.6655141,"lng":121.4248347}},{"name":"光華派出所","address":"花蓮縣吉安鄉南濱路1段459號","tel":"03-8423135","location":{"lat":23.9433595,"lng":121.5967148}},{"name":"加灣派出所","address":"花蓮縣秀林鄉景美村7鄰加灣128之6號","tel":"038260769","location":{"lat":24.0819913,"lng":121.608921}},{"name":"北埔派出所","address":"花蓮縣新城鄉北埔路271號","tel":"038262484","location":{"lat":24.0346307,"lng":121.603551}},{"name":"北昌派出所","address":"花蓮縣吉安鄉壽昌街6號","tel":"038569376","location":{"lat":23.9880104,"lng":121.592001}},{"name":"卓樂派出所","address":"花蓮縣卓溪鄉卓清村11鄰卓樂15號","tel":"038888150","location":{"lat":23.2953927,"lng":121.2700591}},{"name":"卓溪分駐所","address":"花蓮縣卓溪鄉中正路69號","tel":"038886024","location":{"lat":23.333015,"lng":121.315906}},{"name":"南平派出所","address":"花蓮縣鳳林鎮自強路372號","tel":"038771594","location":{"lat":23.782995,"lng":121.4591417}},{"name":"南華派出所","address":"花蓮縣吉安鄉吉安路6段351巷10號","tel":"038521672","location":{"lat":23.9424685,"lng":121.5446147}},{"name":"合歡派出所","address":"花蓮縣秀林鄉富世村19鄰關原20之1號","tel":"0425991114","location":{"lat":24.1863486,"lng":121.3388985}},{"name":"吉安分局","address":"花蓮縣吉安鄉中正路1段38號","tel":"038531701","location":{"lat":23.967851,"lng":121.5932102}},{"name":"吉安派出所","address":"花蓮縣吉安鄉吉安村吉安路2段122號","tel":"038525894","location":{"lat":23.973481,"lng":121.5634096}},{"name":"和平派出所","address":"花蓮縣秀林鄉和平村122號","tel":"038681034","location":{"lat":23.9826659,"lng":121.590203}},{"name":"嘉里派出所","address":"花蓮縣新城鄉嘉里三街47號","tel":"038264135","location":{"lat":24.0164836,"lng":121.6071179}},{"name":"壽豐分駐所","address":"花蓮縣壽豐鄉壽山路22號","tel":"038651337","location":{"lat":23.8699998,"lng":121.5093384}},{"name":"大富派出所","address":"花蓮縣光復鄉中山路1段23號","tel":"038731093","location":{"lat":23.6057913,"lng":121.3923989}},{"name":"大禹派出所","address":"花蓮縣玉里鎮大禹里21鄰大禹227號","tel":"038886025","location":{"lat":23.3746212,"lng":121.3255688}},{"name":"天祥派出所","address":"花蓮縣秀林鄉富世村13鄰天祥22-6號","tel":"038691139","location":{"lat":24.1837975,"lng":121.4944274}},{"name":"太昌派出所","address":"花蓮縣吉安鄉吉安路1段37號","tel":"038569425","location":{"lat":23.9915731,"lng":121.5751664}},{"name":"奇美派出所","address":"花蓮縣瑞穗鄉奇美村2鄰奇美20號","tel":"038991071","location":{"lat":0,"lng":0}},{"name":"富世派出所","address":"花蓮縣秀林鄉富世村8鄰富世135號","tel":"038611344","location":{"lat":24.1480832,"lng":121.6286298}},{"name":"富源派出所","address":"花蓮縣豐濱鄉富源村9鄰中正路159號","tel":"038811014","location":{"lat":0,"lng":0}},{"name":"富田派出所","address":"花蓮縣光復鄉中正路2段55號","tel":"038702623","location":{"lat":23.6591262,"lng":121.4498247}},{"name":"富里分駐所","address":"花蓮縣富里鄉中正路140號","tel":"038831078","location":{"lat":23.335013,"lng":121.315464}},{"name":"山興派出所","address":"花蓮縣鳳林鎮山文路7號","tel":"038741014","location":{"lat":23.7263951,"lng":121.4987247}},{"name":"崇德派出所","address":"花蓮縣秀林鄉崇德村6鄰崇德82號","tel":"038621043","location":{"lat":24.162582,"lng":121.6521189}},{"name":"崙天派出所","address":"花蓮縣卓溪鄉古風村1鄰崙天5號","tel":"038846067","location":{"lat":23.2184496,"lng":121.2647588}},{"name":"志學派出所","address":"花蓮縣壽豐鄉中山路2段238號","tel":"038661282","location":{"lat":23.9069052,"lng":121.5302744}},{"name":"新城分局","address":"花蓮縣新城鄉中山路59號","tel":"038611204","location":{"lat":24.1267267,"lng":121.6533215}},{"name":"新城派出所","address":"花蓮縣新城鄉中山路59號","tel":"038611004","location":{"lat":24.1267267,"lng":121.6533215}},{"name":"新社派出所","address":"花蓮縣豐濱鄉新社村7鄰新社161號","tel":"038711329","location":{"lat":23.6509488,"lng":121.5355305}},{"name":"春日派出所","address":"花蓮縣玉里鎮春日里11鄰神農74號","tel":"038871134","location":{"lat":23.442011,"lng":121.4056153}},{"name":"月眉派出所","address":"花蓮縣壽豐鄉月眉村7鄰月眉3段42號","tel":"038631001","location":{"lat":23.8684067,"lng":121.5553413}},{"name":"東里派出所","address":"花蓮縣富里鄉東里村5鄰大庄路38號","tel":"038861114","location":{"lat":23.2574577,"lng":121.3255688}},{"name":"樂合派出所","address":"花蓮縣玉里鎮樂合里12鄰樂合27號","tel":"038883384","location":{"lat":23.3031214,"lng":121.3598812}},{"name":"民意派出所","address":"花蓮縣花蓮市府前路518號","tel":"038227827","location":{"lat":24.0010952,"lng":121.6202928}},{"name":"水源派出所","address":"花蓮縣秀林鄉水源村9鄰水源109號","tel":"038572083","location":{"lat":24.0031123,"lng":121.5561573}},{"name":"水璉派出所","address":"花蓮縣壽豐鄉水璉村3鄰水璉一街53號","tel":"038601011","location":{"lat":23.7834567,"lng":121.5647247}},{"name":"永豐派出所","address":"花蓮縣富里鄉豐南村4鄰永豐93之4號","tel":"038832669","location":{"lat":23.1265217,"lng":121.2912463}},{"name":"池南派出所","address":"花蓮縣壽豐鄉池南路2段13號","tel":"038641280","location":{"lat":23.9209216,"lng":121.5061432}},{"name":"港口派出所","address":"花蓮縣豐濱鄉靜浦村10鄰靜浦10號","tel":"038781046","location":{"lat":0,"lng":0}},{"name":"玉里分局","address":"花蓮縣玉里鎮博愛路200號","tel":"038888568","location":{"lat":23.3366983,"lng":121.3137481}},{"name":"玉里派出所","address":"花蓮縣玉里鎮博愛路200號","tel":"038882245","location":{"lat":23.3366983,"lng":121.3137481}},{"name":"瑞穗分駐所","address":"花蓮縣瑞穗鄉中正南路2號","tel":"038872057","location":{"lat":23.497124,"lng":121.377755}},{"name":"秀林分駐所","address":"花蓮縣秀林鄉秀林村12鄰秀林路69號","tel":"038611090","location":{"lat":24.1184431,"lng":121.6243014}},{"name":"稻香派出所","address":"花蓮縣吉安鄉稻香路62號","tel":"038521340","location":{"lat":23.9632444,"lng":121.5697113}},{"name":"立山派出所","address":"花蓮縣卓溪鄉立山村17鄰山里77之2號","tel":"038841501","location":{"lat":23.5156702,"lng":121.193945}},{"name":"竹田派出所","address":"花蓮縣富里鄉竹田村1鄰東竹40號","tel":"038821044","location":{"lat":23.2142786,"lng":121.2798033}},{"name":"紅葉派出所","address":"花蓮縣萬榮鄉紅葉村1鄰紅葉11號","tel":"038871372","location":{"lat":23.4955081,"lng":121.3447057}},{"name":"美崙派出所","address":"花蓮縣花蓮市民權路209號","tel":"038228341","location":{"lat":23.9948513,"lng":121.6314666}},{"name":"自強派出所","address":"花蓮縣花蓮市中央路3段840號","tel":"038569374","location":{"lat":23.9931724,"lng":121.5923371}},{"name":"舞鶴派出所","address":"花蓮縣瑞穗鄉舞鶴村1鄰舞鶴59號","tel":"038872874","location":{"lat":23.4576813,"lng":121.3522266}},{"name":"花蓮分局","address":"花蓮縣花蓮市軒轅路32號","tel":"038354008","location":{"lat":23.9760727,"lng":121.6121064}},{"name":"花蓮縣警察局","address":"花蓮縣花蓮市府前路21號","tel":"038224138","location":{"lat":23.9931976,"lng":121.620133}},{"name":"萬榮分駐所","address":"花蓮縣萬榮鄉萬榮村1鄰萬榮14之1號","tel":"038751549","location":{"lat":23.7145039,"lng":121.4099354}},{"name":"西林派出所","address":"花蓮縣萬榮鄉西林村8鄰西林130號","tel":"038771116","location":{"lat":23.8094697,"lng":121.4418793}},{"name":"觀音派出所","address":"花蓮縣玉里鎮觀音里16鄰觀音14號","tel":"038851040","location":{"lat":0,"lng":0}},{"name":"豐川派出所","address":"花蓮縣花蓮市國民八街15號","tel":"038357871","location":{"lat":23.9932052,"lng":121.6045219}},{"name":"豐濱分駐所","address":"花蓮縣豐濱鄉三民路104號","tel":"038791148","location":{"lat":23.5982638,"lng":121.5225253}},{"name":"豐田派出所","address":"花蓮縣壽豐鄉豐山街1號","tel":"038651486","location":{"lat":23.8485026,"lng":121.4942779}},{"name":"軒轅派出所","address":"花蓮縣花蓮市軒轅路32號","tel":"038328344","location":{"lat":23.9760727,"lng":121.6121064}},{"name":"銅門派出所","address":"花蓮縣秀林鄉銅門村9鄰銅門65號","tel":"038641051","location":{"lat":23.9652869,"lng":121.4944568}},{"name":"長橋派出所","address":"花蓮縣鳳林鎮長橋路91號","tel":"038751314","location":{"lat":23.711457,"lng":121.419414}},{"name":"鳳林分局","address":"花蓮縣鳳林鎮信義路37號","tel":"038762324","location":{"lat":23.7422943,"lng":121.4509632}},{"name":"鳳林派出所","address":"花蓮縣鳳林鎮信義路37號","tel":"038762293","location":{"lat":23.7422943,"lng":121.4509632}},{"name":"鹽寮派出所","address":"花蓮縣壽豐鄉鹽寮村鹽寮129號","tel":"038671200","location":{"lat":23.8702301,"lng":121.5981732}},{"name":"一心路派出所","address":"高雄市前鎮區一心一路286號","tel":"077264661","location":{"lat":22.608119,"lng":120.3183311}},{"name":"一甲派出所","address":"高雄市路竹區金平路356號","tel":"076962954","location":{"lat":22.8696403,"lng":120.2701181}},{"name":"七賢路派出所","address":"高雄市鹽埕區七賢三路170號","tel":"075513534","location":{"lat":22.6273296,"lng":120.2829959}},{"name":"三多路派出所","address":"高雄市苓雅區三多一路168號","tel":"077615655","location":{"lat":22.6225047,"lng":120.3302151}},{"name":"三民派出所","address":"高雄市三民區建國三路188號","tel":"072211460","location":{"lat":22.6369871,"lng":120.2926901}},{"name":"三民第一分局","address":"高雄市三民區同盟一路367號","tel":"073118675","location":{"lat":22.651846,"lng":120.3047964}},{"name":"三民第二分局","address":"高雄市三民區覺民路366號","tel":"073814093","location":{"lat":22.6407684,"lng":120.3337458}},{"name":"中埔派出所","address":"高雄市內門區中埔里中埔36號","tel":"076673308","location":{"lat":23.0108714,"lng":120.6660044}},{"name":"中壇派出所","address":"高雄市美濃區中興路1段636號","tel":"076812789","location":{"lat":22.8860948,"lng":120.5339028}},{"name":"中山路派出所","address":"高雄市新興區中山一路100號","tel":"072211209","location":{"lat":22.6307222,"lng":120.3022568}},{"name":"中庄派出所","address":"高雄市大寮區仁愛路101號","tel":"077016714","location":{"lat":22.6351434,"lng":120.3954203}},{"name":"中正三路派出所","address":"高雄市新興區中正三路3號","tel":"072270189","location":{"lat":22.6305253,"lng":120.3114238}},{"name":"中洲派出所","address":"高雄市旗津區中洲二路66號","tel":"075712328","location":{"lat":22.5747514,"lng":120.2976838}},{"name":"中芸派出所","address":"高雄市林園區力行路250號","tel":"076412792","location":{"lat":22.485443,"lng":120.4008307}},{"name":"九曲派出所","address":"高雄市大樹區久堂路130號","tel":"076512027","location":{"lat":22.6577099,"lng":120.4175498}},{"name":"五甲派出所","address":"高雄市鳳山區五甲二路472號","tel":"077615839","location":{"lat":22.5975249,"lng":120.3348653}},{"name":"五福二路派出所","address":"高雄市新興區五福二路222號","tel":"072316481","location":{"lat":22.6239605,"lng":120.303018}},{"name":"五福四路派出所","address":"高雄市鹽埕區五福四路107號","tel":"075512968","location":{"lat":22.6226048,"lng":120.2852189}},{"name":"仁武分局","address":"高雄市仁武區中正路135號","tel":"073719421","location":{"lat":22.644499,"lng":120.365031}},{"name":"仁武派出所","address":"高雄市仁武區中正路135號","tel":"073711432","location":{"lat":22.644499,"lng":120.365031}},{"name":"仁美派出所","address":"高雄市鳥松區仁德路16號","tel":"077314057","location":{"lat":22.6500088,"lng":120.3958787}},{"name":"內惟派出所","address":"高雄市鼓山區九如四路1139號","tel":"075826970","location":{"lat":22.6595215,"lng":120.2793501}},{"name":"內門分駐所","address":"高雄市內門區內門里內門114號","tel":"076671309","location":{"lat":22.943416,"lng":120.462543}},{"name":"六龜分局","address":"高雄市六龜區中興里中庄153號","tel":"076891119","location":{"lat":23.0108714,"lng":120.6660044}},{"name":"凱旋路派出所","address":"高雄市苓雅區凱旋二路145號","tel":"072236222","location":{"lat":22.6292796,"lng":120.3217815}},{"name":"前峰派出所","address":"高雄市岡山區中華路53號","tel":"076265134","location":{"lat":22.7934156,"lng":120.2876798}},{"name":"前金分駐所","address":"高雄市前金區中正四路174號","tel":"072212901","location":{"lat":22.629148,"lng":120.294597}},{"name":"前鎮分局","address":"高雄市前鎮區一心一路286號","tel":"077242372","location":{"lat":22.608119,"lng":120.3183311}},{"name":"前鎮街派出所","address":"高雄市前鎮區前鎮街260號","tel":"078310309","location":{"lat":22.5914958,"lng":120.3082535}},{"name":"加昌派出所","address":"高雄市楠梓區外環西路119號","tel":"073655961","location":{"lat":22.717956,"lng":120.3000202}},{"name":"十全路派出所","address":"高雄市三民區十全一路86號","tel":"073115807","location":{"lat":22.6450211,"lng":120.3115597}},{"name":"南成派出所","address":"高雄市鳳山區和成路37、39號","tel":"077928393","location":{"lat":22.5940832,"lng":120.3429821}},{"name":"博愛四路派出所","address":"高雄市左營區博愛四路437號","tel":"073487976","location":{"lat":22.6885258,"lng":120.3173456}},{"name":"古亭派出所","address":"高雄市田寮區古亭路39號","tel":"076367058","location":{"lat":22.8934736,"lng":120.4032122}},{"name":"右昌派出所","address":"高雄市楠梓區右昌街250號","tel":"073612977","location":{"lat":22.7123523,"lng":120.2895241}},{"name":"吉東派出所","address":"高雄市美濃區中正路3段416號","tel":"076831744","location":{"lat":22.8546601,"lng":120.5340147}},{"name":"哈爾濱街派出所","address":"高雄市三民區哈爾濱街118號","tel":"073110785","location":{"lat":22.644347,"lng":120.299967}},{"name":"啟文派出所","address":"高雄市左營區中華一路2號","tel":"075882999","location":{"lat":22.67162,"lng":120.286277}},{"name":"嘉興派出所","address":"高雄市岡山區嘉興路251號","tel":"076216401","location":{"lat":22.8217227,"lng":120.3034292}},{"name":"四海派出所","address":"高雄市左營區明建里自治新村221之3號","tel":"075811544","location":{"lat":22.695011,"lng":120.288083}},{"name":"圓潭派出所","address":"高雄市旗山區旗甲路3段165號","tel":"076691307","location":{"lat":22.9327163,"lng":120.5032515}},{"name":"埤頂派出所","address":"高雄市鳳山區中山東路497號","tel":"077013272","location":{"lat":22.628656,"lng":120.3806264}},{"name":"壽天派出所","address":"高雄市岡山區大仁北路5號","tel":"076216400","location":{"lat":22.8017777,"lng":120.3018578}},{"name":"多納派出所","address":"高雄市茂林區多納里1號","tel":"076801208","location":{"lat":22.911244,"lng":120.71621}},{"name":"大寮分駐所","address":"高雄市大寮區鳳林三路377號","tel":"077816335","location":{"lat":22.6023538,"lng":120.3972571}},{"name":"大林派出所","address":"高雄市小港區鳳林路116號","tel":"078712237","location":{"lat":22.5269914,"lng":120.3460572}},{"name":"大樹分駐所","address":"高雄市大樹區中興南路15號","tel":"076512439","location":{"lat":22.6896845,"lng":120.4334524}},{"name":"大洲派出所","address":"高雄市旗山區旗南二路39號","tel":"076661305","location":{"lat":22.8477003,"lng":120.4660099}},{"name":"大社分駐所","address":"高雄市大社區金龍路63號","tel":"073511369","location":{"lat":22.7306288,"lng":120.3539164}},{"name":"大華派出所","address":"高雄市鳥松區澄清路821號","tel":"073701994","location":{"lat":22.6473841,"lng":120.347151}},{"name":"寶來派出所","address":"高雄市六龜區中正路21號","tel":"076881170","location":{"lat":23.0828192,"lng":120.5884132}},{"name":"寶山派出所","address":"高雄市桃源區寶山里16號","tel":"076892464","location":{"lat":23.037768,"lng":120.707438}},{"name":"小港分局","address":"高雄市小港區小港路20號","tel":"078019207","location":{"lat":22.5658698,"lng":120.3450278}},{"name":"小港派出所","address":"高雄市小港區平和南路119號","tel":"078215913","location":{"lat":22.5630626,"lng":120.336066}},{"name":"岡山分局","address":"高雄市岡山區壽天路10號","tel":"076212025","location":{"lat":22.7965583,"lng":120.2953333}},{"name":"崇德派出所","address":"高雄市田寮區崇德路49號","tel":"076366774","location":{"lat":22.8774298,"lng":120.3805664}},{"name":"嶺口派出所","address":"高雄市旗山區旗南三路212號","tel":"076651021","location":{"lat":22.7736983,"lng":120.4496216}},{"name":"左營分局","address":"高雄市左營區進學路1號","tel":"075820032","location":{"lat":22.6906019,"lng":120.2954142}},{"name":"左營派出所","address":"高雄市左營區進學路1號","tel":"075813019","location":{"lat":22.6906019,"lng":120.2954142}},{"name":"廣福派出所","address":"高雄市旗山區旗屏二路18號","tel":"076613260","location":{"lat":22.8574561,"lng":120.504549}},{"name":"廣興派出所","address":"高雄市美濃區民族路100號","tel":"076812794","location":{"lat":22.9137251,"lng":120.564559}},{"name":"建國四路派出所","address":"高雄市鹽埕區建國四路337號","tel":"075512832","location":{"lat":22.631193,"lng":120.283155}},{"name":"建國派出所","address":"高雄市旗山區華中街1號","tel":"076612045","location":{"lat":22.8879386,"lng":120.4830888}},{"name":"建山派出所","address":"高雄市桃源區建山巷61號","tel":"076881170","location":{"lat":23.1014873,"lng":120.6840812}},{"name":"彌陀分駐所","address":"高雄市彌陀區中華路16號","tel":"076176405","location":{"lat":22.791921,"lng":120.2885}},{"name":"後勁派出所","address":"高雄市楠梓區後昌路214號","tel":"073612554","location":{"lat":22.7155517,"lng":120.3093087}},{"name":"復興派出所","address":"高雄市桃源區復興里復興巷1號","tel":"076866087","location":{"lat":22.604172,"lng":120.274485}},{"name":"復興路派出所","address":"高雄市前鎮區復興三路96號","tel":"073342434","location":{"lat":22.610032,"lng":120.310159}},{"name":"忠孝派出所","address":"高雄市鳳山區光復路2段188號","tel":"077402658","location":{"lat":22.6296236,"lng":120.341835}},{"name":"忠義派出所","address":"高雄市大寮區鳳林四路353號","tel":"077817429","location":{"lat":22.6188045,"lng":120.3835858}},{"name":"成功派出所","address":"高雄市鳳山區中山東路16號","tel":"077462453","location":{"lat":22.6202161,"lng":120.3648168}},{"name":"成功路派出所","address":"高雄市苓雅區成功一路136號","tel":"073334793","location":{"lat":22.6148506,"lng":120.2976396}},{"name":"拉芙蘭派出所","address":"高雄市桃源區梅蘭里113號","tel":"076866087","location":{"lat":23.240657,"lng":120.811867}},{"name":"文山派出所","address":"高雄市鳳山區鳳松路127號","tel":"077324340","location":{"lat":22.6412143,"lng":120.363593}},{"name":"文自派出所","address":"高雄市左營區文自路21號","tel":"073501311","location":{"lat":22.672293,"lng":120.305213}},{"name":"新威派出所","address":"高雄市六龜區新威路127號","tel":"076871176","location":{"lat":22.902204,"lng":120.628322}},{"name":"新濱派出所","address":"高雄市鼓山區臨海三路2號","tel":"075514863","location":{"lat":22.6224061,"lng":120.2752947}},{"name":"新甲派出所","address":"高雄市鳳山區新富路383號","tel":"077636944","location":{"lat":22.615816,"lng":120.3483167}},{"name":"新興分局","address":"高雄市新興區中山一路100號","tel":"072212057","location":{"lat":22.6307222,"lng":120.3022568}},{"name":"新莊派出所","address":"高雄市左營區富民路435號","tel":"075562630","location":{"lat":22.668072,"lng":120.305659}},{"name":"旗尾派出所","address":"高雄市旗山區延平二路21號","tel":"076614306","location":{"lat":22.8819828,"lng":120.4929654}},{"name":"旗山分局","address":"高雄市旗山區華中街1號","tel":"076612001","location":{"lat":22.8879386,"lng":120.4830888}},{"name":"旗津分駐所","address":"高雄市旗津區廟前路137號","tel":"075715492","location":{"lat":22.614096,"lng":120.2691298}},{"name":"昭明派出所","address":"高雄市大寮區鳳林一路287號","tel":"076411903","location":{"lat":22.5462603,"lng":120.4098003}},{"name":"杉林分駐所","address":"高雄市杉林區上平里山仙路87之1號","tel":"076771154","location":{"lat":22.977307,"lng":120.542815}},{"name":"林園分局","address":"高雄市林園區林園北路201號","tel":"076412004","location":{"lat":22.5076454,"lng":120.394907}},{"name":"林園派出所","address":"高雄市林園區林園北路201號","tel":"076412013","location":{"lat":22.5076454,"lng":120.394907}},{"name":"桂陽派出所","address":"高雄市小港區桂陽路338號","tel":"077912688","location":{"lat":22.5822339,"lng":120.3515039}},{"name":"桃源分駐所","address":"高雄市桃源區桃源里南進巷183號","tel":"076861176","location":{"lat":23.160988,"lng":120.76418}},{"name":"梅山派出所","address":"高雄市桃源區梅山里52號","tel":"076866170","location":{"lat":23.238822,"lng":120.834289}},{"name":"梓官分駐所","address":"高雄市梓官區梓官路267號","tel":"076171403","location":{"lat":22.7633335,"lng":120.2667104}},{"name":"森濤派出所","address":"高雄市桃源區寶山里藤枝78號","tel":"076892474","location":{"lat":23.037768,"lng":120.707438}},{"name":"楠梓分局","address":"高雄市楠梓區外環西路119號","tel":"073653190","location":{"lat":22.717956,"lng":120.3000202}},{"name":"楠梓派出所","address":"高雄市楠梓區旗楠路160號","tel":"073511145","location":{"lat":22.733577,"lng":120.33319}},{"name":"橋頭分駐所","address":"高雄市橋頭區成功路156號","tel":"076113555","location":{"lat":22.7578158,"lng":120.3102094}},{"name":"民族派出所","address":"高雄市三民區民族一路208號","tel":"073822653","location":{"lat":22.6478344,"lng":120.3151021}},{"name":"民權路派出所","address":"高雄市苓雅區四維二路369號","tel":"073333631","location":{"lat":22.6200733,"lng":120.3136939}},{"name":"永安分駐所","address":"高雄市永安區永安路22號","tel":"076912044","location":{"lat":22.8173941,"lng":120.2225881}},{"name":"深水派出所","address":"高雄市燕巢區深興路88號","tel":"076152054","location":{"lat":22.7724967,"lng":120.392258}},{"name":"港埔派出所","address":"高雄市林園區沿海路4段326號","tel":"076413695","location":{"lat":22.5032705,"lng":120.3820214}},{"name":"湖內分局","address":"高雄市湖內區中山路1段290號","tel":"076932155","location":{"lat":22.8854575,"lng":120.2456411}},{"name":"湖內派出所","address":"高雄市湖內區中正路2段95號","tel":"076993229","location":{"lat":22.9083595,"lng":120.2103069}},{"name":"湖街派出所","address":"高雄市湖內區中山路1段290之1號","tel":"076934784","location":{"lat":22.8854575,"lng":120.2456411}},{"name":"溝坪派出所","address":"高雄市內門區永興里頂庄9號","tel":"076601670","location":{"lat":23.0108714,"lng":120.6660044}},{"name":"溪埔派出所","address":"高雄市大樹區溪埔路65號","tel":"076561044","location":{"lat":22.7278259,"lng":120.4446419}},{"name":"漢民路派出所","address":"高雄市小港區宏平路367號","tel":"078064590","location":{"lat":22.569623,"lng":120.35952}},{"name":"澄觀派出所","address":"高雄市仁武區八德西路189號","tel":"073718188","location":{"lat":22.6834634,"lng":120.3289901}},{"name":"燕巢分駐所","address":"高雄市燕巢區中民路585號","tel":"076161402","location":{"lat":22.7932505,"lng":120.3623411}},{"name":"瑞隆路派出所","address":"高雄市前鎮區班超路49號","tel":"078221183","location":{"lat":22.5998041,"lng":120.3259296}},{"name":"田寮分駐所","address":"高雄市田寮區崗安路99號","tel":"076361878","location":{"lat":22.8734983,"lng":120.3581109}},{"name":"甲仙分駐所","address":"高雄市甲仙區和安街42號","tel":"076751204","location":{"lat":23.0829949,"lng":120.5894715}},{"name":"甲圍派出所","address":"高雄市橋頭區甲樹路1170號","tel":"076110384","location":{"lat":22.7418812,"lng":120.2965555}},{"name":"砂崙派出所","address":"高雄市茄定區白砂路239巷2弄9號","tel":"076900055","location":{"lat":22.9074953,"lng":120.1839839}},{"name":"福德二路派出所","address":"高雄市苓雅區福德二路77號","tel":"077233343","location":{"lat":22.6323069,"lng":120.327992}},{"name":"竹滬派出所","address":"高雄市路竹區華山路31號","tel":"076981824","location":{"lat":22.8623179,"lng":120.2289197}},{"name":"美濃分駐所","address":"高雄市美濃區美中路262號","tel":"076812029","location":{"lat":22.896505,"lng":120.542208}},{"name":"義寶派出所","address":"高雄市六龜區民生路1號","tel":"076891049","location":{"lat":22.9986571,"lng":120.6339728}},{"name":"翠屏派出所","address":"高雄市楠梓區德祥路147號","tel":"073649783","location":{"lat":22.7266144,"lng":120.3093659}},{"name":"自強路派出所","address":"高雄市前金區自強二路63號","tel":"072910188","location":{"lat":22.623915,"lng":120.295748}},{"name":"舊城派出所","address":"高雄市左營區左營大路101號","tel":"075853036","location":{"lat":22.6829296,"lng":120.2883949}},{"name":"舊港派出所","address":"高雄市彌陀區舊港橫路1號","tel":"076196994","location":{"lat":22.7994283,"lng":120.2316908}},{"name":"苓雅分局","address":"高雄市苓雅區苓雅一路367號","tel":"073353760","location":{"lat":22.618459,"lng":120.303563}},{"name":"茂林分駐所","address":"高雄市茂林區茂林里茂林巷13號","tel":"076801200","location":{"lat":22.8848988,"lng":120.6638592}},{"name":"茄興派出所","address":"高雄市杉林區木梓里茄苳巷144號","tel":"076779274","location":{"lat":23.021733,"lng":120.544168}},{"name":"茄萣分駐所","address":"高雄市茄萣區茄萣路2段1號","tel":"076902272","location":{"lat":22.8986997,"lng":120.1831932}},{"name":"草衙派出所","address":"高雄市前鎮區鎮中路150號","tel":"078213705","location":{"lat":22.5862903,"lng":120.3193234}},{"name":"荖濃派出所","address":"高雄市六龜區裕濃路18號","tel":"076881014","location":{"lat":23.0656909,"lng":120.6721118}},{"name":"萬山派出所","address":"高雄市茂林區萬山里1號","tel":"076801203","location":{"lat":23.0108714,"lng":120.6660044}},{"name":"蛙潭派出所","address":"高雄市田寮區七星路11號","tel":"076361192","location":{"lat":22.8292081,"lng":120.3908774}},{"name":"覺民派出所","address":"高雄市三民區覺民路366號","tel":"073842108","location":{"lat":22.6407684,"lng":120.3337458}},{"name":"赤崁派出所","address":"高雄市梓官區赤崁西路12號","tel":"076101404","location":{"lat":22.7371165,"lng":120.2462966}},{"name":"路竹分駐所","address":"高雄市路竹區國昌路86巷24號","tel":"076962615","location":{"lat":22.8552091,"lng":120.259026}},{"name":"過埤派出所","address":"高雄市鳳山區保生路69號","tel":"077923028","location":{"lat":22.5926034,"lng":120.3599727}},{"name":"達卡努瓦派出所","address":"高雄市那瑪夏區民生里秀嶺巷87號","tel":"076701118","location":{"lat":23.271627,"lng":120.725906}},{"name":"那瑪夏分駐所","address":"高雄市那瑪夏區瑪雅里平和巷89號","tel":"076701168","location":{"lat":23.271627,"lng":120.725906}},{"name":"里關派出所","address":"高雄市甲仙區中興路44巷10號","tel":"076752006","location":{"lat":23.1080371,"lng":120.6063657}},{"name":"長明派出所","address":"高雄市三民區南華路253號","tel":"072355098","location":{"lat":22.6384387,"lng":120.3037013}},{"name":"阿蓮分駐所","address":"高雄市阿蓮區忠孝路226號","tel":"076312029","location":{"lat":22.8783595,"lng":120.3265406}},{"name":"陽明派出所","address":"高雄市三民區義華路272號","tel":"073922032","location":{"lat":22.6435333,"lng":120.3377438}},{"name":"高中派出所","address":"高雄市桃源區興中巷90號","tel":"076881385","location":{"lat":23.1266998,"lng":120.7143439}},{"name":"高松派出所","address":"高雄市小港區高松路25號","tel":"078010795","location":{"lat":22.5724931,"lng":120.3724499}},{"name":"高雄市政府警察局","address":"高雄市前金區中正四路260號","tel":"072155555","location":{"lat":22.6278833,"lng":120.2906019}},{"name":"鳥松分駐所","address":"高雄市鳥松區中正路96號之1","tel":"077326240","location":{"lat":22.644482,"lng":120.366126}},{"name":"鳳山分局","address":"高雄市鳳山區經武路36號","tel":"077456110","location":{"lat":22.6274722,"lng":120.3627423}},{"name":"鳳崗派出所","address":"高雄市鳳山區曹公路23號","tel":"077412244","location":{"lat":22.6270885,"lng":120.3572391}},{"name":"鳳雄派出所","address":"高雄市燕巢區鳳旗路171號","tel":"076153054","location":{"lat":22.753622,"lng":120.3543196}},{"name":"鹽埕分局","address":"高雄市鹽埕區建國四路337號","tel":"075513424","location":{"lat":22.631193,"lng":120.283155}},{"name":"鼎山派出所","address":"高雄市三民區鼎山街260號","tel":"073907880","location":{"lat":22.6592001,"lng":120.3217968}},{"name":"鼎金派出所","address":"高雄市三民區鼎力路125號","tel":"073426730","location":{"lat":22.6666981,"lng":120.3218714}},{"name":"鼓山分局","address":"高雄市鼓山區鼓山一路105號","tel":"075514005","location":{"lat":22.6266818,"lng":120.2781988}},{"name":"鼓山派出所","address":"高雄市鼓山區鼓山二路81號","tel":"075512673","location":{"lat":22.6347096,"lng":120.282432}},{"name":"龍肚派出所","address":"高雄市美濃區龍肚街63號","tel":"076851797","location":{"lat":22.8816664,"lng":120.5725529}},{"name":"龍華派出所","address":"高雄市鼓山區中華一路301號","tel":"075551802","location":{"lat":22.6604716,"lng":120.2928481}},{"name":"七堵派出所","address":"基隆市七堵區富民里明德一路142號","tel":"0224566947","location":{"lat":25.0983532,"lng":121.7154195}},{"name":"中山派出所","address":"基隆市中山區西定路1號","tel":"0224242440","location":{"lat":25.1317183,"lng":121.73532}},{"name":"中華路派出所","address":"基隆市中山區通明街2號","tel":"0224246944","location":{"lat":25.1468657,"lng":121.7388815}},{"name":"信六路派出所","address":"基隆市中正區義一路148號","tel":"0224246948","location":{"lat":25.1352697,"lng":121.7473615}},{"name":"信義派出所","address":"基隆市信義區信二路193號","tel":"0224211595","location":{"lat":25.129583,"lng":121.7501216}},{"name":"八堵分駐所","address":"基隆市暖暖區八堵路69號","tel":"0224562438","location":{"lat":25.1090053,"lng":121.7320332}},{"name":"八斗子分駐所","address":"基隆市中正區環港街98號","tel":"0224692077","location":{"lat":25.1403289,"lng":121.7932081}},{"name":"南榮路派出所","address":"基隆市仁愛區南榮路225號","tel":"0224242437","location":{"lat":25.1216394,"lng":121.7431635}},{"name":"和一路派出所","address":"基隆市中正區和一路146號","tel":"0224622752","location":{"lat":25.1550823,"lng":121.7650523}},{"name":"基隆市警察局","address":"基隆市信義區信二路205號","tel":"0224248141","location":{"lat":25.1296363,"lng":121.7495312}},{"name":"大武崙派出所","address":"基隆市安樂區基金一路351號","tel":"0224310118","location":{"lat":25.1416229,"lng":121.704939}},{"name":"安定派出所","address":"基隆市安樂區安一路307號","tel":"0224246946","location":{"lat":25.1325712,"lng":121.7275766}},{"name":"安樂分駐所","address":"基隆市安樂區麥金路125號","tel":"0224316212","location":{"lat":25.1200837,"lng":121.7222813}},{"name":"安瀾橋派出所","address":"基隆市中正區中正路320號","tel":"0224622435","location":{"lat":25.1424914,"lng":121.7608437}},{"name":"延平街派出所","address":"基隆市仁愛區仁二路76號","tel":"0224246950","location":{"lat":25.1277531,"lng":121.7487037}},{"name":"復興派出所","address":"基隆市七堵區華新一路40之3號","tel":"0224515602","location":{"lat":25.090802,"lng":121.668147}},{"name":"忠二路派出所","address":"基隆市仁愛區忠二路2之1號","tel":"0224241363","location":{"lat":25.1296422,"lng":121.7410309}},{"name":"暖暖派出所","address":"基隆市暖暖區暖暖街119號","tel":"0224572331","location":{"lat":25.1010225,"lng":121.737742}},{"name":"東光派出所","address":"基隆市信義區東明路61號","tel":"0224656443","location":{"lat":25.1275313,"lng":121.7627426}},{"name":"正濱派出所","address":"基隆市中正區中正路511號","tel":"0224621889","location":{"lat":25.1526825,"lng":121.7681337}},{"name":"深澳坑派出所","address":"基隆市信義區深澳坑路69號","tel":"0224654170","location":{"lat":25.127209,"lng":121.785286}},{"name":"瑪陵派出所","address":"基隆市七堵區大華二路194號","tel":"0224565085","location":{"lat":25.1110394,"lng":121.6869242}},{"name":"百福派出所","address":"基隆市七堵區百福里百六街120號","tel":"0224512156","location":{"lat":25.0854325,"lng":121.6978191}},{"name":"碇內派出所","address":"基隆市暖暖區源遠路249巷36號","tel":"0224576080","location":{"lat":25.0996909,"lng":121.7551407}},{"name":"第一分局","address":"基隆市仁愛區仁五路22號","tel":"0224222741","location":{"lat":25.127673,"lng":121.7406748}},{"name":"第三分局","address":"基隆市七堵區富民里明德一路142號","tel":"0224558843","location":{"lat":25.0983532,"lng":121.7154195}},{"name":"第二分局","address":"基隆市信義區信二路193號","tel":"0224222742","location":{"lat":25.129583,"lng":121.7501216}},{"name":"第四分局","address":"基隆市中山區西定路1號","tel":"0224225477","location":{"lat":25.1317183,"lng":121.73532}},{"name":"三灣分駐所","address":"苗栗縣三灣鄉中正路254號","tel":"037831071","location":{"lat":24.6550772,"lng":120.956836}},{"name":"三義分駐所","address":"苗栗縣三義鄉廣盛村廣盛90號","tel":"037872003","location":{"lat":24.4127212,"lng":120.7698703}},{"name":"中和派出所","address":"苗栗縣通霄鎮南和里9鄰112號","tel":"037782254","location":{"lat":24.4467814,"lng":120.7215077}},{"name":"中港派出所","address":"苗栗縣竹南鎮中正路477號","tel":"037470314","location":{"lat":24.683046,"lng":120.86652}},{"name":"中興派出所","address":"苗栗縣泰安鄉中興村1鄰長橋9號","tel":"037992350","location":{"lat":24.3940472,"lng":120.9202575}},{"name":"八卦派出所","address":"苗栗縣泰安鄉錦水村10鄰橫龍山52號","tel":"037941137","location":{"lat":24.46991,"lng":120.9686851}},{"name":"公館分駐所","address":"苗栗縣公館鄉大同路181號","tel":"037225683","location":{"lat":24.5036674,"lng":120.8271563}},{"name":"北苗派出所","address":"苗栗縣苗栗市為公路227號","tel":"037260344","location":{"lat":24.5714223,"lng":120.8284829}},{"name":"卓蘭分駐所","address":"苗栗縣卓蘭鎮中山路106號","tel":"0425892017","location":{"lat":24.3127025,"lng":120.8255965}},{"name":"南勢派出所","address":"苗栗縣後龍鎮南勢山1鄰15-10號","tel":"037921445","location":{"lat":24.4892686,"lng":120.9417368}},{"name":"南埔派出所","address":"苗栗縣南庄鄉南富村13鄰14號","tel":"037822752","location":{"lat":24.6354725,"lng":120.9788968}},{"name":"南庄分駐所","address":"苗栗縣南庄鄉東村大同路27號","tel":"037822004","location":{"lat":24.5977633,"lng":120.9988832}},{"name":"南湖派出所","address":"苗栗縣大湖鄉南昌路132號","tel":"037991547","location":{"lat":24.4014375,"lng":120.8672763}},{"name":"南苗派出所","address":"苗栗縣苗栗市信義街60號","tel":"037320367","location":{"lat":24.5508822,"lng":120.8142655}},{"name":"和興派出所","address":"苗栗縣獅潭鄉和興村12鄰27號","tel":"037931230","location":{"lat":24.5145893,"lng":120.9103819}},{"name":"坪林派出所","address":"苗栗縣卓蘭鎮坪林里5鄰坪林50號","tel":"0425921101","location":{"lat":24.3344435,"lng":120.8748136}},{"name":"埔口派出所","address":"苗栗縣通霄鎮中山路260號","tel":"037792143","location":{"lat":24.54486,"lng":120.699016}},{"name":"士林派出所","address":"苗栗縣泰安鄉象鼻村1鄰象鼻12號","tel":"037962037","location":{"lat":24.3604853,"lng":120.9481793}},{"name":"外埔派出所","address":"苗栗縣後龍鎮海埔里3鄰5號","tel":"037431361","location":{"lat":24.4892686,"lng":120.9417368}},{"name":"大同派出所","address":"苗栗縣竹南鎮公義路931號","tel":"037581712","location":{"lat":24.709484,"lng":120.8970836}},{"name":"大安派出所","address":"苗栗縣泰安鄉象鼻村1鄰22號","tel":"037962241","location":{"lat":24.3592,"lng":120.947286}},{"name":"大山派出所","address":"苗栗縣後龍鎮灣寶里5鄰93號","tel":"037431764","location":{"lat":24.6485341,"lng":120.810919}},{"name":"大河派出所","address":"苗栗縣三灣鄉大河村6鄰大河48號","tel":"037831081","location":{"lat":24.598577,"lng":120.9635696}},{"name":"大湖分局","address":"苗栗縣大湖鄉中正路78號","tel":"037991006","location":{"lat":24.4228472,"lng":120.8663139}},{"name":"大湖派出所","address":"苗栗縣大湖鄉中正路78號","tel":"037991041","location":{"lat":24.4228472,"lng":120.8663139}},{"name":"大興派出所","address":"苗栗縣泰安鄉大興村24號","tel":"037992349","location":{"lat":24.4238128,"lng":120.9245216}},{"name":"尖山派出所","address":"苗栗縣頭份鎮中華路160號","tel":"037622763","location":{"lat":24.6646677,"lng":120.8812881}},{"name":"山腳派出所","address":"苗栗縣苑裡鎮山腳里389號","tel":"037740217","location":{"lat":24.4171846,"lng":120.6861601}},{"name":"後龍分駐所","address":"苗栗縣後龍鎮三民路107號","tel":"037722520","location":{"lat":24.6135945,"lng":120.7863199}},{"name":"文山派出所","address":"苗栗縣苗栗市至公路557號","tel":"037337127","location":{"lat":24.5659905,"lng":120.8104939}},{"name":"斗坪派出所","address":"苗栗縣頭份鎮中正二路215號","tel":"037665770","location":{"lat":24.6807038,"lng":120.9461971}},{"name":"新港派出所","address":"苗栗縣後龍鎮建興路111號","tel":"037722474","location":{"lat":24.6110577,"lng":120.813616}},{"name":"明德派出所","address":"苗栗縣頭屋鄉明德路131號","tel":"037252538","location":{"lat":24.5846477,"lng":120.8845031}},{"name":"東河派出所","address":"苗栗縣南庄鄉東河村5鄰50號","tel":"037822094","location":{"lat":24.5742074,"lng":120.9853835}},{"name":"校林派出所","address":"苗栗縣大湖鄉栗林村5鄰四份62-1號","tel":"037951337","location":{"lat":24.373292,"lng":120.8424963}},{"name":"梅園派出所","address":"苗栗縣泰安鄉梅園村6鄰天狗32號","tel":"037962131","location":{"lat":24.3930259,"lng":120.9790159}},{"name":"汶水派出所","address":"苗栗縣獅潭鄉竹木村16鄰24號","tel":"037991648","location":{"lat":24.4598279,"lng":120.8769265}},{"name":"泰安分駐所","address":"苗栗縣泰安鄉清安村1鄰19號","tel":"037941057","location":{"lat":24.4464039,"lng":120.9081783}},{"name":"海口派出所","address":"苗栗縣竹南鎮明勝路263號","tel":"037460684","location":{"lat":24.6752613,"lng":120.8645085}},{"name":"烏眉派出所","address":"苗栗縣通霄鎮烏眉里4鄰41號","tel":"037753164","location":{"lat":24.4965853,"lng":120.702832}},{"name":"獅潭分駐所","address":"苗栗縣獅潭鄉新店村7鄰63號","tel":"037931348","location":{"lat":24.5414955,"lng":120.9219933}},{"name":"田美派出所","address":"苗栗縣南庄鄉獅山村4鄰106號","tel":"037822134","location":{"lat":24.6374039,"lng":121.0145424}},{"name":"白沙派出所","address":"苗栗縣通霄鎮白東里17鄰133號","tel":"037792134","location":{"lat":24.5644592,"lng":120.7106569}},{"name":"百壽派出所","address":"苗栗縣獅潭鄉百壽村7鄰39-1號","tel":"037931231","location":{"lat":24.5795902,"lng":120.940969}},{"name":"社苓派出所","address":"苗栗縣苑裡鎮玉田里5鄰62之3號","tel":"037742508","location":{"lat":24.3894194,"lng":120.6849254}},{"name":"福基派出所","address":"苗栗縣公館鄉福基村5鄰133號","tel":"037225984","location":{"lat":24.4721961,"lng":120.8307298}},{"name":"竹南分局","address":"苗栗縣竹南鎮民族街72號","tel":"037478032","location":{"lat":24.6852317,"lng":120.8785722}},{"name":"竹南派出所","address":"苗栗縣竹南鎮民族街72號","tel":"037474796","location":{"lat":24.6852317,"lng":120.8785722}},{"name":"聯港派出所","address":"苗栗縣後龍鎮津龍里5鄰公司寮59號","tel":"037450734","location":{"lat":24.6123072,"lng":120.760059}},{"name":"苑裡分駐所","address":"苗栗縣苑裡鎮天下路84號","tel":"037861024","location":{"lat":24.443779,"lng":120.653403}},{"name":"苗栗分局","address":"苗栗縣苗栗市金鳳街109號","tel":"037320059","location":{"lat":24.5417303,"lng":120.821182}},{"name":"苗栗縣警察局","address":"苗栗縣苗栗市府前路2號","tel":"037321303","location":{"lat":24.5639472,"lng":120.8201561}},{"name":"蓬萊派出所","address":"苗栗縣南庄鄉蓬萊村7鄰90號","tel":"037822040","location":{"lat":24.551098,"lng":120.971916}},{"name":"西湖分駐所","address":"苗栗縣西湖鄉金獅村2鄰金獅26-6號","tel":"037921031","location":{"lat":24.5586964,"lng":120.7578295}},{"name":"觀霧派出所","address":"苗栗縣泰安鄉梅園村觀霧1號","tel":"037273038","location":{"lat":24.5064185,"lng":121.1137123}},{"name":"談文派出所","address":"苗栗縣造橋鄉談文村8鄰51-16號","tel":"037622664","location":{"lat":24.6422288,"lng":120.8595412}},{"name":"象鼻派出所","address":"苗栗縣泰安鄉象鼻村1鄰象鼻12號","tel":"037962243","location":{"lat":24.3604853,"lng":120.9481793}},{"name":"通霄分局","address":"苗栗縣通霄鎮中正路16號","tel":"037752464","location":{"lat":24.4907228,"lng":120.6822668}},{"name":"通霄派出所","address":"苗栗縣通霄鎮中正路16號","tel":"037752001","location":{"lat":24.4907228,"lng":120.6822668}},{"name":"造橋分駐所","address":"苗栗縣造橋鄉平仁路51號","tel":"037563224","location":{"lat":24.64191,"lng":120.86679}},{"name":"銅鑼分駐所","address":"苗栗縣銅鑼鄉朝陽村中正路253號","tel":"037981014","location":{"lat":24.490408,"lng":120.788015}},{"name":"陸家派出所","address":"苗栗縣南庄鄉東河村24鄰鹿場2號","tel":"037821570","location":{"lat":24.5386526,"lng":121.027454}},{"name":"雞隆派出所","address":"苗栗縣銅鑼鄉新隆20號","tel":"037971012","location":{"lat":24.4289562,"lng":120.8084329}},{"name":"頭份分局","address":"苗栗縣頭份鎮中正路222號","tel":"037663306","location":{"lat":24.686927,"lng":120.910918}},{"name":"頭份派出所","address":"苗栗縣頭份鎮中正路223號","tel":"037663004","location":{"lat":24.688304,"lng":120.9147288}},{"name":"頭屋分駐所","address":"苗栗縣頭屋鄉中山街17號","tel":"037253103","location":{"lat":24.576962,"lng":120.8505427}},{"name":"高湖派出所","address":"苗栗縣西湖鄉五福村6鄰97號","tel":"037911414","location":{"lat":24.4892686,"lng":120.9417368}},{"name":"鯉魚派出所","address":"苗栗縣三義鄉鯉魚口54-1號","tel":"037881040","location":{"lat":24.352206,"lng":120.741067}},{"name":"鶴岡派出所","address":"苗栗縣公館鄉鶴山村7鄰232號","tel":"037226975","location":{"lat":24.5319113,"lng":120.8319874}},{"name":"龍山派出所","address":"苗栗縣泰安鄉錦水村10鄰橫龍山52號","tel":"037941136","location":{"lat":24.46991,"lng":120.9686851}},{"name":"龍騰派出所","address":"苗栗縣三義鄉伯公坑41-1號","tel":"037872396","location":{"lat":24.3784294,"lng":120.7495233}},{"name":"上林派出所","address":"南投縣草屯鎮草溪路136之2號","tel":"0492329309","location":{"lat":23.958089,"lng":120.672018}},{"name":"中原派出所","address":"南投縣仁愛鄉互助村中華路76號","tel":"0492941073","location":{"lat":24.0634846,"lng":120.9684291}},{"name":"中和派出所","address":"南投縣竹山鎮前山路2段119號","tel":"0492648620","location":{"lat":23.7633923,"lng":120.6629791}},{"name":"中寮分駐所","address":"南投縣中寮鄉永平村永平路278號","tel":"0492691330","location":{"lat":23.879274,"lng":120.7656728}},{"name":"中正派出所","address":"南投縣草屯鎮中正路571號","tel":"0492306200","location":{"lat":23.979048,"lng":120.694651}},{"name":"中興分局","address":"南投縣南投市光華路115號","tel":"0492332585","location":{"lat":23.9504198,"lng":120.6935212}},{"name":"中興派出所","address":"南投縣南投市光華路115號","tel":"0492332544","location":{"lat":23.9504198,"lng":120.6935212}},{"name":"久美派出所","address":"南投縣信義鄉望美村美信巷55號","tel":"0492831472","location":{"lat":23.6190174,"lng":120.8841916}},{"name":"五城派出所","address":"南投縣魚池鄉五城村五城巷24號","tel":"0492895114","location":{"lat":23.8878741,"lng":120.8880523}},{"name":"人倫派出所","address":"南投縣信義鄉人和村民生巷9號","tel":"0492770310","location":{"lat":23.7793833,"lng":120.8965674}},{"name":"仁愛分局","address":"南投縣仁愛鄉大同村仁和路87號","tel":"0492802204","location":{"lat":24.0233432,"lng":121.1325379}},{"name":"信義分局","address":"南投縣信義鄉明德村玉山路49號","tel":"0492791260","location":{"lat":23.6972269,"lng":120.8542261}},{"name":"信義派出所","address":"南投縣信義鄉明德村玉山路49號","tel":"0492791261","location":{"lat":23.6972269,"lng":120.8542261}},{"name":"光明派出所","address":"南投縣南投市光明路35號","tel":"0492332586","location":{"lat":23.9388866,"lng":120.6974743}},{"name":"北山派出所","address":"南投縣國姓鄉北山村中正路4段159號","tel":"0492451181","location":{"lat":23.9814386,"lng":120.8726018}},{"name":"半山派出所","address":"南投縣南投市彰南路3段19號","tel":"0492251264","location":{"lat":23.9241278,"lng":120.6759479}},{"name":"南投分局","address":"南投縣南投市彰南路2段109號","tel":"0492222923","location":{"lat":23.91018,"lng":120.6832}},{"name":"南投派出所","address":"南投縣南投市彰南路2段109號","tel":"0492222336","location":{"lat":23.91018,"lng":120.6832}},{"name":"南投縣政府警察局","address":"南投縣南投市南崗二路133號","tel":"0492222448","location":{"lat":23.9096907,"lng":120.6789119}},{"name":"南豐派出所","address":"南投縣仁愛鄉南豐村中正路119之1號","tel":"0492920085","location":{"lat":24.0004021,"lng":121.0805711}},{"name":"史港派出所","address":"南投縣埔里鎮史港里西安路2段355號","tel":"0492931692","location":{"lat":24.0007716,"lng":120.963362}},{"name":"合成派出所","address":"南投縣埔里鎮合成里西安路3段225號","tel":"0492931587","location":{"lat":24.0366776,"lng":120.9248365}},{"name":"名間分駐所","address":"南投縣名間鄉中正村彰南路30號","tel":"0492732149","location":{"lat":23.837673,"lng":120.7036938}},{"name":"和社派出所","address":"南投縣信義鄉同富村同和巷6號","tel":"0492701304","location":{"lat":23.5958812,"lng":120.888687}},{"name":"國姓分駐所","address":"南投縣國姓鄉石門里國姓路265號","tel":"0492721232","location":{"lat":24.0401934,"lng":120.8576281}},{"name":"埔里分局","address":"南投縣埔里鎮中山路2段235號","tel":"0492982429","location":{"lat":23.9668108,"lng":120.969334}},{"name":"埔里派出所","address":"南投縣埔里鎮中山路2段235號","tel":"0492998439","location":{"lat":23.9668108,"lng":120.969334}},{"name":"崁峰派出所","address":"南投縣名間鄉崁腳村名松路1段309號","tel":"0492582138","location":{"lat":23.8352866,"lng":120.6612044}},{"name":"平靜派出所","address":"南投縣仁愛鄉都達村法觀路18號","tel":"0492970196","location":{"lat":23.8387601,"lng":120.9876321}},{"name":"府西派出所","address":"南投縣南投市虎山路15號","tel":"0492332557","location":{"lat":23.9578866,"lng":120.6851269}},{"name":"廬山派出所","address":"南投縣仁愛鄉精英村榮華巷43號","tel":"0492802521","location":{"lat":24.022482,"lng":121.1880151}},{"name":"延平派出所","address":"南投縣竹山鎮延和里集山路3段22號","tel":"0492644365","location":{"lat":23.7667204,"lng":120.7059431}},{"name":"復興派出所","address":"南投縣草屯鎮碧山路755號","tel":"0492334783","location":{"lat":23.9758643,"lng":120.667663}},{"name":"德化派出所","address":"南投縣魚池鄉日月村中正路288號","tel":"0492850119","location":{"lat":23.8472107,"lng":120.9322693}},{"name":"愛蘭派出所","address":"南投縣埔里鎮鐵山里鐵山一巷5之1號","tel":"0492912334","location":{"lat":23.976447,"lng":120.9388213}},{"name":"新佳派出所","address":"南投縣名間鄉新街村彰南路422號","tel":"0492225160","location":{"lat":23.8785667,"lng":120.693545}},{"name":"新光派出所","address":"南投縣草屯鎮芬草路2段412號","tel":"0492321224","location":{"lat":23.9931438,"lng":120.6683347}},{"name":"新鄉派出所","address":"南投縣信義鄉新鄉村新鄉路105號","tel":"0492831595","location":{"lat":23.6402581,"lng":120.8690477}},{"name":"日月潭派出所","address":"南投縣魚池鄉水社村中山路144號","tel":"0492855121","location":{"lat":23.8667264,"lng":120.9113322}},{"name":"春陽派出所","address":"南投縣仁愛鄉春陽村永樂巷57號","tel":"0492802396","location":{"lat":24.0278269,"lng":121.14914}},{"name":"望洋派出所","address":"南投縣仁愛鄉力行村新望洋68號","tel":"0492955210","location":{"lat":24.1478604,"lng":121.1892833}},{"name":"杉林派出所","address":"南投縣竹山鎮大鞍里溪山路5號","tel":"0492611307","location":{"lat":23.6499099,"lng":120.7877304}},{"name":"東光派出所","address":"南投縣魚池鄉東光村慶隆巷32號","tel":"0492880126","location":{"lat":23.8899863,"lng":120.9660555}},{"name":"東埔派出所","address":"南投縣信義鄉東埔村開高巷56號","tel":"0492701321","location":{"lat":23.5617776,"lng":120.9281663}},{"name":"松岡派出所","address":"南投縣仁愛鄉大同村仁和路135號","tel":"0492802395","location":{"lat":24.0727168,"lng":121.1685572}},{"name":"桃米派出所","address":"南投縣埔里鎮桃米里桃米巷48號","tel":"0492913832","location":{"lat":23.9425448,"lng":120.9296771}},{"name":"桶頭派出所","address":"南投縣竹山鎮鯉南路319號","tel":"0492711044","location":{"lat":23.6471301,"lng":120.6553013}},{"name":"梅林派出所","address":"南投縣國姓鄉北港村國姓路48號","tel":"0492461041","location":{"lat":24.0579452,"lng":120.9121723}},{"name":"榮興派出所","address":"南投縣仁愛鄉榮興村碧綠巷24號","tel":"0425991064","location":{"lat":24.2232274,"lng":121.2895099}},{"name":"武界派出所","address":"南投縣仁愛鄉法治村界山巷4號","tel":"0492977001","location":{"lat":23.9168899,"lng":121.0460186}},{"name":"水里分駐所","address":"南投縣水里鄉北埔村博愛街260號","tel":"0492770117","location":{"lat":23.8111398,"lng":120.84917}},{"name":"永和派出所","address":"南投縣名間鄉大庄村南田路138號","tel":"0492271002","location":{"lat":23.8742938,"lng":120.6541546}},{"name":"永清派出所","address":"南投縣南投市南營路745號","tel":"0492325314","location":{"lat":23.9415401,"lng":120.6787996}},{"name":"清流派出所","address":"南投縣仁愛鄉互助村中華路76號","tel":"0492941073","location":{"lat":24.0634846,"lng":120.9684291}},{"name":"溪頭派出所","address":"南投縣鹿谷鄉內湖村與產路1之20號","tel":"0492612173","location":{"lat":23.6722621,"lng":120.7982029}},{"name":"潭南派出所","address":"南投縣信義鄉潭南村和平巷47號","tel":"0492741264","location":{"lat":23.8215862,"lng":120.9396946}},{"name":"爽文派出所","address":"南投縣中寮鄉爽文村龍南路189號","tel":"0492601049","location":{"lat":23.934971,"lng":120.760172}},{"name":"瑞岩派出所","address":"南投縣仁愛鄉發祥村光復巷21號","tel":"0492955185","location":{"lat":24.122492,"lng":121.1571921}},{"name":"瑞竹派出所","address":"南投縣竹山鎮鯉南路293號","tel":"0492711710","location":{"lat":23.6620857,"lng":120.6656964}},{"name":"眉原派出所","address":"南投縣仁愛鄉互助村中華路76號","tel":"0492941073","location":{"lat":24.0634846,"lng":120.9684291}},{"name":"社寮派出所","address":"南投縣竹山鎮社寮里集山路1段1694號","tel":"0492622002","location":{"lat":23.8151841,"lng":120.722876}},{"name":"秀峰派出所","address":"南投縣鹿谷鄉秀峰村仁愛路174號","tel":"0492671930","location":{"lat":23.7802023,"lng":120.7759291}},{"name":"竹山分局","address":"南投縣竹山鎮集山路3段968號","tel":"0492642040","location":{"lat":23.7570205,"lng":120.6828233}},{"name":"竹山派出所","address":"南投縣竹山鎮集山路3段968號","tel":"0492642012","location":{"lat":23.7570205,"lng":120.6828233}},{"name":"竹林派出所","address":"南投縣鹿谷鄉光復路106號","tel":"0492676142","location":{"lat":23.7268663,"lng":120.7554877}},{"name":"紅香派出所","address":"南投縣仁愛鄉發祥村仁盛路22號","tel":"0492955187","location":{"lat":24.1603917,"lng":121.1766538}},{"name":"羅娜派出所","address":"南投縣信義鄉羅娜村信筆巷66號","tel":"0492831471","location":{"lat":23.628454,"lng":120.8697547}},{"name":"翠峰派出所","address":"南投縣仁愛鄉大同村仁和路220號","tel":"0492802603","location":{"lat":24.0235056,"lng":121.1333408}},{"name":"翠巒派出所","address":"南投縣仁愛鄉力行村翠巒路23號","tel":"0492960040","location":{"lat":24.1795309,"lng":121.2001585}},{"name":"草屯分局","address":"南投縣草屯鎮中正路571號","tel":"0492362002","location":{"lat":23.979048,"lng":120.694651}},{"name":"草屯派出所","address":"南投縣草屯鎮中山里草鞋墩一街10號","tel":"0492362066","location":{"lat":23.973825,"lng":120.6808316}},{"name":"華崗派出所","address":"南投縣仁愛鄉翠華村華崗119之2號","tel":"0492960200","location":{"lat":24.19305,"lng":121.225944}},{"name":"萬豐派出所","address":"南投縣仁愛鄉法治村界山巷4號","tel":"0492977001","location":{"lat":23.9168899,"lng":121.0460186}},{"name":"親愛派出所","address":"南投縣仁愛鄉親愛村高平路4號","tel":"0492974245","location":{"lat":23.9683494,"lng":121.1082884}},{"name":"豐丘派出所","address":"南投縣信義鄉豐丘村高平巷8號","tel":"0492791583","location":{"lat":23.6705879,"lng":120.8751936}},{"name":"豐城派出所","address":"南投縣草屯鎮中正路216號","tel":"0492552223","location":{"lat":23.9845472,"lng":120.7418883}},{"name":"赤水派出所","address":"南投縣名間鄉赤水村南田路291號","tel":"0492271159","location":{"lat":23.8572308,"lng":120.6293325}},{"name":"車埕派出所","address":"南投縣水里鄉車埕村民權巷108號","tel":"0492771154","location":{"lat":23.833973,"lng":120.866438}},{"name":"過坑派出所","address":"南投縣仁愛鄉中正村平等巷118號","tel":"0492925753","location":{"lat":23.9045969,"lng":120.9915}},{"name":"過溪派出所","address":"南投縣竹山鎮鯉南路172號","tel":"0492648927","location":{"lat":23.7269926,"lng":120.6675226}},{"name":"郡坑分駐所","address":"南投縣水里鄉群坑村郡水信路2段80號","tel":"0492821481","location":{"lat":23.7442414,"lng":120.8590634}},{"name":"長壽派出所","address":"南投縣國姓鄉福龜村中正路1段157號","tel":"0492721130","location":{"lat":24.0124858,"lng":120.8194087}},{"name":"長流派出所","address":"南投縣國姓鄉長流村大長路351號","tel":"0492431040","location":{"lat":24.0724957,"lng":120.8766338}},{"name":"隆生派出所","address":"南投縣埔里鎮南環路400號","tel":"0492904298","location":{"lat":23.9514783,"lng":120.9616075}},{"name":"隘寮派出所","address":"南投縣集集鎮田寮里龍泉巷25號","tel":"049781064","location":{"lat":23.8348405,"lng":120.7509235}},{"name":"集集分局","address":"南投縣集集鎮民生路63號","tel":"0492762702","location":{"lat":23.8087456,"lng":120.8579257}},{"name":"集集派出所","address":"南投縣集集鎮民生路63號","tel":"0492760828","location":{"lat":23.8087456,"lng":120.8579257}},{"name":"雙冬派出所","address":"南投縣草屯鎮中正路46號","tel":"0492571222","location":{"lat":23.9835955,"lng":120.7914905}},{"name":"雙龍派出所","address":"南投縣信義鄉雙龍村光復巷33號","tel":"0492741321","location":{"lat":23.7834985,"lng":120.9474171}},{"name":"霧社派出所","address":"南投縣仁愛鄉大同村仁和路87號","tel":"0492802520","location":{"lat":24.0233432,"lng":121.1325379}},{"name":"青雲派出所","address":"南投縣信義鄉地利村開信巷14號","tel":"0492741142","location":{"lat":23.7944085,"lng":120.9426263}},{"name":"靜觀派出所","address":"南投縣仁愛鄉都達村法觀路18號","tel":"0492970196","location":{"lat":23.8387601,"lng":120.9876321}},{"name":"頂林派出所","address":"南投縣竹山鎮頂林路399號","tel":"0492648702","location":{"lat":23.720132,"lng":120.7010433}},{"name":"頭社派出所","address":"南投縣魚池鄉頭社村平和巷145號","tel":"0492861013","location":{"lat":23.8337889,"lng":120.8960468}},{"name":"魚池分駐所","address":"南投縣魚池鄉魚池村魚池街358號","tel":"0492895501","location":{"lat":23.896957,"lng":120.9369785}},{"name":"鯉潭派出所","address":"南投縣埔里鎮中山路1段319號","tel":"0492987829","location":{"lat":23.9763127,"lng":120.9867104}},{"name":"鳳凰派出所","address":"南投縣鹿谷鄉鳳凰村新進巷1號","tel":"0492751102","location":{"lat":23.73489,"lng":120.7840056}},{"name":"鳳鳴派出所","address":"南投縣南投市八卦路837號","tel":"0492291939","location":{"lat":23.9260092,"lng":120.6380061}},{"name":"鹿谷分駐所","address":"南投縣鹿谷鎮鹿谷村中正路2段76號","tel":"0492752040","location":{"lat":23.7461613,"lng":120.7539418}},{"name":"七美分駐所","address":"澎湖縣七美鄉平和村10號","tel":"069971001","location":{"lat":23.2073946,"lng":119.4222855}},{"name":"光明派出所","address":"澎湖縣馬公市新生路201號","tel":"069272542","location":{"lat":23.5703724,"lng":119.5759703}},{"name":"吉貝派出所","address":"澎湖縣白沙鄉吉貝村1號","tel":"069911165","location":{"lat":23.741859,"lng":119.613256}},{"name":"啟明派出所","address":"澎湖縣馬公市仁愛路16號","tel":"069272541","location":{"lat":23.565176,"lng":119.5672815}},{"name":"外垵派出所","address":"澎湖縣西嶼鄉外垵村12號","tel":"069981702","location":{"lat":23.566082,"lng":119.48268}},{"name":"將軍派出所","address":"澎湖縣望安鄉將軍村160號","tel":"069902112","location":{"lat":0,"lng":0}},{"name":"嶼坪派出所","address":"澎湖縣望安鄉東嶼坪45號","tel":"069991527","location":{"lat":23.257035,"lng":119.5128126}},{"name":"文澳派出所","address":"澎湖縣馬公市東文里5號","tel":"069214622","location":{"lat":23.572261,"lng":119.572093}},{"name":"望安分局","address":"澎湖縣望安鄉東安村57號","tel":"069991057","location":{"lat":23.3563849,"lng":119.5004483}},{"name":"東垵派出所","address":"澎湖縣望安鄉東安村57號","tel":"069991343","location":{"lat":23.3563849,"lng":119.5004483}},{"name":"東衛派出所","address":"澎湖縣馬公市東衛里12號","tel":"069211318","location":{"lat":23.5690056,"lng":119.5994563}},{"name":"沙港派出所","address":"澎湖縣湖西鄉沙港村138號","tel":"069210779","location":{"lat":23.6021367,"lng":119.622356}},{"name":"湖西分駐所","address":"澎湖縣湖西村77號","tel":"069921022","location":{"lat":23.5696611,"lng":119.5703393}},{"name":"澎湖縣政府警察局","address":"澎湖縣馬公市治平路36號","tel":"069272557","location":{"lat":23.5700101,"lng":119.565929}},{"name":"白沙分局","address":"澎湖縣白沙鄉後寮村7之9號","tel":"069932849","location":{"lat":23.6671001,"lng":119.583}},{"name":"白沙派出所","address":"澎湖縣白沙鄉赤崁村135號","tel":"069931071","location":{"lat":23.6667552,"lng":119.6000297}},{"name":"竹灣派出所","address":"澎湖縣西嶼鄉合界村1之9號","tel":"069981701","location":{"lat":23.6364561,"lng":119.5267215}},{"name":"花嶼派出所","address":"澎湖縣望安鄉花嶼村45之1號","tel":"069991742","location":{"lat":23.4004045,"lng":119.3216738}},{"name":"虎井派出所","address":"澎湖縣馬公市虎井里75之2號","tel":"069291112","location":{"lat":23.4867415,"lng":119.517752}},{"name":"西嶼分駐所","address":"澎湖縣西嶼鄉池東村小池角214號","tel":"069981155","location":{"lat":23.600134,"lng":119.509989}},{"name":"講美派出所","address":"澎湖縣白沙鄉講美村103號","tel":"069931501","location":{"lat":23.6328171,"lng":119.5981219}},{"name":"通梁派出所","address":"澎湖縣白沙鄉後寮村7之9號","tel":"069931484","location":{"lat":23.6671001,"lng":119.583}},{"name":"鎖港派出所","address":"澎湖縣馬公市鎖港里1481號","tel":"069951024","location":{"lat":23.5249067,"lng":119.597287}},{"name":"隘門派出所","address":"澎湖縣湖西鄉隘門村1號","tel":"069210780","location":{"lat":23.5628819,"lng":119.637891}},{"name":"雙吉派出所","address":"澎湖縣望安鄉東吉村9號","tel":"069991119","location":{"lat":23.3565673,"lng":119.5031719}},{"name":"馬公分局","address":"澎湖縣馬公市新生路201號","tel":"069273284","location":{"lat":23.5703724,"lng":119.5759703}},{"name":"龍門派出所","address":"澎湖縣湖西鄉龍門村119之64號","tel":"069921434","location":{"lat":23.5607434,"lng":119.6748694}},{"name":"三和派出所","address":"屏東縣里港鄉土庫村土庫路140號","tel":"087731145","location":{"lat":22.817666,"lng":120.5073288}},{"name":"三地門分駐所","address":"屏東縣三地門鄉三地村中正路2段101號","tel":"087991154","location":{"lat":22.7164889,"lng":120.6540437}},{"name":"中山路派出所","address":"屏東縣潮洲鎮新生路81號","tel":"087882347","location":{"lat":22.5496645,"lng":120.5383697}},{"name":"九如分駐所","address":"屏東縣九如鄉九清村九如路2段177號","tel":"087392424","location":{"lat":22.733352,"lng":120.48891}},{"name":"九棚派出所","address":"屏東縣滿州鄉港仔村港仔路60號","tel":"088810200","location":{"lat":22.1336318,"lng":120.8816817}},{"name":"仁壽派出所","address":"屏東縣恆春鎮仁壽路117號","tel":"088893247","location":{"lat":22.0269659,"lng":120.7377007}},{"name":"佳佐派出所","address":"屏東縣萬巒鄉佳和村佳興路30號","tel":"087831114","location":{"lat":22.572848,"lng":120.5968783}},{"name":"佳冬分駐所","address":"屏東縣佳冬鄉六根村佳和路89號","tel":"088662089","location":{"lat":22.4147614,"lng":120.5495268}},{"name":"佳義派出所","address":"屏東縣瑪家鄉佳義村泰平巷53號","tel":"087990163","location":{"lat":22.65497,"lng":120.63187}},{"name":"來義分駐所","address":"屏東縣來義鄉古樓村中正路92號","tel":"087850206","location":{"lat":22.5258576,"lng":120.6316986}},{"name":"光華派出所","address":"屏東縣潮洲鎮中山路12號","tel":"087884265","location":{"lat":22.5500271,"lng":120.5452796}},{"name":"內埔分局","address":"屏東縣內埔鄉內埔村中興路158號","tel":"087796801","location":{"lat":22.6127052,"lng":120.5696861}},{"name":"內埔派出所","address":"屏東縣內埔鄉內埔村中興路158號","tel":"087792018","location":{"lat":22.6127052,"lng":120.5696861}},{"name":"內獅派出所","address":"屏東縣獅子鄉內獅村內獅巷60號","tel":"088720004","location":{"lat":22.3045206,"lng":120.6450675}},{"name":"公館派出所","address":"屏東縣屏東市龍華路157號","tel":"087527484","location":{"lat":22.635433,"lng":120.4824633}},{"name":"加祿派出所","address":"屏東縣枋山鄉加祿村加祿路102號","tel":"088720002","location":{"lat":22.3397052,"lng":120.6137548}},{"name":"南和派出所","address":"屏東縣來義鄉南和村288號","tel":"088791415","location":{"lat":22.4346568,"lng":120.6383052}},{"name":"南州分駐所","address":"屏東縣南州鄉仁里村三民路52號","tel":"088642047","location":{"lat":22.4902062,"lng":120.509331}},{"name":"口社派出所","address":"屏東縣三地門鄉口社村信義巷59之2號","tel":"087957078","location":{"lat":22.7698383,"lng":120.6467883}},{"name":"四林派出所","address":"屏東縣潮洲鎮明倫路15號","tel":"087882767","location":{"lat":22.5455013,"lng":120.5671552}},{"name":"墾丁派出所","address":"屏東縣恆春鎮墾丁路113號","tel":"088861039","location":{"lat":21.9446655,"lng":120.7998777}},{"name":"大同派出所","address":"屏東縣屏東市前進里清進巷208號","tel":"087555413","location":{"lat":22.6530666,"lng":120.4649249}},{"name":"大平派出所","address":"屏東縣里港鄉大平村中山路103號","tel":"087752034","location":{"lat":22.779374,"lng":120.4941396}},{"name":"大鵬灣派出所","address":"屏東縣東港鎮鵬灣大道1段200號","tel":"08-8338262","location":{"lat":22.5495057,"lng":120.6199895}},{"name":"屏東分局","address":"屏東縣屏東市永福路19號","tel":"087322075","location":{"lat":22.6714072,"lng":120.4873551}},{"name":"屏東縣警察局","address":"屏東縣屏東市中正路119號","tel":"087322598","location":{"lat":22.6738847,"lng":120.489137}},{"name":"崁頂分駐所","address":"屏東縣崁頂鄉崁頂村中正路117號","tel":"088631404","location":{"lat":22.5133464,"lng":120.5111959}},{"name":"崇蘭派出所","address":"屏東縣屏東市迪化街48號","tel":"08-7656206","location":{"lat":22.6808888,"lng":120.482087}},{"name":"建國派出所","address":"屏東縣屏東市復興路243號","tel":"087522978","location":{"lat":22.6633747,"lng":120.4881818}},{"name":"建民派出所","address":"屏東縣恆春鎮中正路60號","tel":"088892587","location":{"lat":22.0029238,"lng":120.7451865}},{"name":"建興派出所","address":"屏東縣枋寮鄉地利村建興路262號","tel":"088712962","location":{"lat":22.3871292,"lng":120.5952942}},{"name":"德協派出所","address":"屏東縣長治鄉德協村中興路635號","tel":"087621604","location":{"lat":22.6950877,"lng":120.5488258}},{"name":"德文派出所","address":"屏東縣三地門鄉德文村德文巷3號","tel":"087996067","location":{"lat":22.7703962,"lng":120.702407}},{"name":"忠孝派出所","address":"屏東縣泰武鄉泰武村良武巷101號","tel":"087920001","location":{"lat":22.589119,"lng":120.664035}},{"name":"恆春分局","address":"屏東縣恆春鎮中正路60號","tel":"088892075","location":{"lat":22.0029238,"lng":120.7451865}},{"name":"振興派出所","address":"屏東縣鹽埔鄉振興村中正路6號","tel":"087020234","location":{"lat":22.7235692,"lng":120.6135651}},{"name":"新北勢派出所","address":"屏東縣內埔鄉豐田村新中路137號","tel":"087792804","location":{"lat":22.6286729,"lng":120.5428904}},{"name":"新南派出所","address":"屏東縣高樹鄉新南村興店路8號","tel":"087962584","location":{"lat":22.7849511,"lng":120.5611495}},{"name":"新圍派出所","address":"屏東縣鹽埔鄉新二村維新路129號","tel":"087932244","location":{"lat":22.7410717,"lng":120.5569937}},{"name":"新園分駐所","address":"屏東縣新園鄉仙吉村仙吉路140號","tel":"088681004","location":{"lat":22.5434858,"lng":120.4612841}},{"name":"新埤分駐所","address":"屏東縣新埤鄉新埤村新華路146號","tel":"087971045","location":{"lat":22.4687251,"lng":120.5512162}},{"name":"新鐘派出所","address":"屏東縣萬丹鄉新鐘村新鐘路64號","tel":"087772254","location":{"lat":22.5617819,"lng":120.4857898}},{"name":"旭海派出所","address":"屏東縣牡丹鄉旭海村旭海路1號","tel":"088830200","location":{"lat":22.1948719,"lng":120.887397}},{"name":"春日分駐所","address":"屏東縣春日鄉春日村春日路316號","tel":"088785180","location":{"lat":22.3707235,"lng":120.6275214}},{"name":"東海派出所","address":"屏東縣枋寮鄉東海村東林路717號","tel":"088712920","location":{"lat":22.4007768,"lng":120.5741224}},{"name":"東港分局","address":"屏東縣東港鎮沿海路1號","tel":"088322045","location":{"lat":22.4631275,"lng":120.4617629}},{"name":"東港派出所","address":"屏東縣東港鎮沿海路1號","tel":"088338183","location":{"lat":22.4631275,"lng":120.4617629}},{"name":"東濱派出所","address":"屏東縣東港鎮朝安里延平路112號","tel":"088322603","location":{"lat":22.4666484,"lng":120.4477769}},{"name":"枋寮分局","address":"屏東縣枋寮鄉枋寮村中興路33號","tel":"088782004","location":{"lat":22.3667081,"lng":120.5933969}},{"name":"枋寮派出所","address":"屏東縣枋寮鄉枋寮村中興路33號","tel":"088782949","location":{"lat":22.3667081,"lng":120.5933969}},{"name":"枋山分駐所","address":"屏東縣枋山鄉枋山村國中路26巷5之1號","tel":"088761129","location":{"lat":22.263053,"lng":120.652344}},{"name":"林邊分駐所","address":"屏東縣林邊鄉光林村中山路185號","tel":"088752018","location":{"lat":22.4320628,"lng":120.5189194}},{"name":"楓港派出所","address":"屏東縣枋山鄉善餘村德隆路19號","tel":"088771214","location":{"lat":22.1904513,"lng":120.6910341}},{"name":"歸來派出所","address":"屏東縣屏東市民生東路94號","tel":"087224416","location":{"lat":22.6620315,"lng":120.5098918}},{"name":"歸崇派出所","address":"屏東縣春日鄉歸崇村玉光路6號","tel":"088791104","location":{"lat":22.4283834,"lng":120.6308053}},{"name":"民和派出所","address":"屏東縣屏東市民生路40號","tel":"087223077","location":{"lat":22.667639,"lng":120.49811}},{"name":"民族派出所","address":"屏東縣屏東市民族路152號","tel":"087322072","location":{"lat":22.6707857,"lng":120.4836875}},{"name":"民生派出所","address":"屏東縣屏東市北平路40號","tel":"087322646","location":{"lat":22.6762689,"lng":120.487127}},{"name":"泗洲派出所","address":"屏東縣竹田鄉泗州村洲中路44號","tel":"087892582","location":{"lat":22.5737138,"lng":120.5243184}},{"name":"泰山派出所","address":"屏東縣高樹鄉泰山村山下路71號","tel":"087956334","location":{"lat":22.7870881,"lng":120.6155628}},{"name":"泰武分駐所","address":"屏東縣泰武鄉佳平村佳平巷1號","tel":"087833038","location":{"lat":22.591622,"lng":120.6289232}},{"name":"海豐派出所","address":"屏東縣屏東市海豐路18號","tel":"087367704","location":{"lat":22.6896251,"lng":120.491982}},{"name":"滿州分駐所","address":"屏東縣滿州鄉滿州村中山路60號","tel":"088801161","location":{"lat":22.0208857,"lng":120.8391648}},{"name":"潮州分局","address":"屏東縣潮州鎮中山路12號","tel":"087882020","location":{"lat":22.5500271,"lng":120.5452796}},{"name":"牡丹分駐所","address":"屏東縣牡丹鄉石門村石門路31號","tel":"088831110","location":{"lat":22.125258,"lng":120.773619}},{"name":"獅子分駐所","address":"屏東縣獅子鄉楓林村2巷28號","tel":"088771391","location":{"lat":22.2023847,"lng":120.7053169}},{"name":"琉球分駐所","address":"屏東縣琉球鄉中福村三民路262號","tel":"088612231","location":{"lat":22.3513298,"lng":120.3839405}},{"name":"瑪家分駐所","address":"屏東縣瑪家鄉北葉村風景巷1號","tel":"087991749","location":{"lat":22.708805,"lng":120.647963}},{"name":"石光派出所","address":"屏東縣佳冬鄉石光村中山路200號","tel":"088662034","location":{"lat":22.4380054,"lng":120.563159}},{"name":"社皮派出所","address":"屏東縣萬丹鄉社口村社皮路2段399號","tel":"087073044","location":{"lat":22.6139922,"lng":120.4680287}},{"name":"竹田分駐所","address":"屏東縣竹田鄉竹田村中正路111號","tel":"087710734","location":{"lat":22.5844919,"lng":120.5438584}},{"name":"繁華派出所","address":"屏東縣長治鄉繁昌村中山路102號","tel":"087621384","location":{"lat":22.7070887,"lng":120.5758853}},{"name":"興龍派出所","address":"屏東縣新園鄉興龍村南興路278號","tel":"088322433","location":{"lat":22.4902176,"lng":120.4592592}},{"name":"舊寮派出所","address":"屏東縣高樹鄉新豐村民安路1之10號","tel":"087916063","location":{"lat":22.855308,"lng":120.6171168}},{"name":"草埔派出所","address":"屏東縣獅子鄉草埔村5號","tel":"088701484","location":{"lat":22.2345206,"lng":120.8024899}},{"name":"萬丹分駐所","address":"屏東縣萬丹鄉萬安村萬丹路1段216號","tel":"087772004","location":{"lat":22.586075,"lng":120.4895026}},{"name":"萬巒分駐所","address":"屏東縣萬巒鄉萬巒村褒忠路124號","tel":"087811320","location":{"lat":22.5736693,"lng":120.5689903}},{"name":"西勢派出所","address":"屏東縣竹田鄉竹田村中正路111號","tel":"087710734","location":{"lat":22.5844919,"lng":120.5438584}},{"name":"赤山派出所","address":"屏東縣萬巒鄉赤山村東山路110號","tel":"087833451","location":{"lat":22.5886189,"lng":120.6115365}},{"name":"車城分駐所","address":"屏東縣車城鄉福興村中山路17號","tel":"088821152","location":{"lat":22.0727368,"lng":120.7142363}},{"name":"里港分局","address":"屏東縣里港鄉永春村永豐路1段3號","tel":"087752040","location":{"lat":22.7795744,"lng":120.4952842}},{"name":"長樂派出所","address":"屏東縣滿州鄉長樂村大公路33號","tel":"088811141","location":{"lat":22.0757067,"lng":120.8282621}},{"name":"長治分駐所","address":"屏東縣長治鄉進興村復興路2號","tel":"087366741","location":{"lat":22.6769491,"lng":120.5278971}},{"name":"霧台分駐所","address":"屏東縣霧台鄉霧台村神山巷70號","tel":"087902238","location":{"lat":22.7510383,"lng":120.728135}},{"name":"青山派出所","address":"屏東縣三地門鄉青山村民族巷61之2號","tel":"087960690","location":{"lat":22.8167781,"lng":120.6405192}},{"name":"餉潭派出所","address":"屏東縣新埤鄉餉潭村龍潭路137號","tel":"087981819","location":{"lat":22.4762224,"lng":120.611274}},{"name":"高樹分駐所","address":"屏東縣高樹鄉高樹村興中路332號","tel":"087962021","location":{"lat":22.8265855,"lng":120.6006835}},{"name":"鹽埔分駐所","address":"屏東縣鹽埔鄉鹽中村中山路41號","tel":"087932224","location":{"lat":22.7578968,"lng":120.5767871}},{"name":"麟洛分駐所","address":"屏東縣麟洛鄉麟趾村中山路437號","tel":"087221528","location":{"lat":22.6520162,"lng":120.5249316}},{"name":"龍水派出所","address":"屏東縣恆春鎮龍泉路260號","tel":"088894172","location":{"lat":21.9807097,"lng":120.7297937}},{"name":"龍泉派出所","address":"屏東縣內埔鄉龍泉村原勝路76號","tel":"087701744","location":{"lat":22.6691407,"lng":120.6002562}},{"name":"三田派出所","address":"臺中市清水區中山路559號","tel":"0426222146","location":{"lat":24.2963069,"lng":120.5911442}},{"name":"中坑派出所","address":"臺中市東勢區東坑路665號","tel":"0425874474","location":{"lat":24.2362208,"lng":120.8542901}},{"name":"五光派出所","address":"臺中市烏日區五光路281號","tel":"0423381960","location":{"lat":24.0934885,"lng":120.649246}},{"name":"仁化派出所","address":"臺中市大里區仁化路198號","tel":"0424952010","location":{"lat":24.0946021,"lng":120.7154951}},{"name":"何安派出所","address":"臺中市西屯區甘肅路106號","tel":"0423149343","location":{"lat":24.166196,"lng":120.6590376}},{"name":"健康派出所","address":"臺中市南區美村南路8號","tel":"0422634622","location":{"lat":24.1196549,"lng":120.6669809}},{"name":"光華派出所","address":"臺中市沙鹿區光華路387號","tel":"0426630624","location":{"lat":24.2442285,"lng":120.5677354}},{"name":"內新派出所","address":"臺中市大里區中興路2段598號","tel":"0424875584","location":{"lat":24.1151459,"lng":120.6897953}},{"name":"公益派出所","address":"臺中市西區精誠二十三街30號","tel":"0424727640","location":{"lat":24.1460497,"lng":120.6565385}},{"name":"勝光派出所","address":"臺中市和平區平等村中興路1段21號","tel":"0425901004","location":{"lat":24.2550933,"lng":121.2459537}},{"name":"勤工派出所","address":"臺中市南區復興路1段235號","tel":"0422612716","location":{"lat":24.1122926,"lng":120.6510056}},{"name":"北屯派出所","address":"臺中市北屯區北屯路106號","tel":"0422332712","location":{"lat":24.1639008,"lng":120.6937661}},{"name":"十九甲派出所","address":"臺中市大里區立元路115號","tel":"0422706613","location":{"lat":24.1023925,"lng":120.7001828}},{"name":"協和派出所","address":"臺中市西屯區臺灣大道4段1347號","tel":"0423593736","location":{"lat":24.1838726,"lng":120.608746}},{"name":"南屯派出所","address":"臺中市南屯區黎明路1段1056號","tel":"0423824718","location":{"lat":24.1396244,"lng":120.6382601}},{"name":"合作派出所","address":"臺中市東區力行路202號","tel":"0423602711","location":{"lat":24.1517819,"lng":120.6928743}},{"name":"合作派出所","address":"臺中市豐原區育英路52號","tel":"0425293134","location":{"lat":24.2429277,"lng":120.7160477}},{"name":"吉峰派出所","address":"臺中市霧峰區中正路1236號","tel":"0423334342","location":{"lat":24.0748583,"lng":120.6999866}},{"name":"后里分駐所","address":"臺中市后里區公安路88號","tel":"0425562037","location":{"lat":24.3040647,"lng":120.7124699}},{"name":"和平分局","address":"臺中市和平區東關路3段154號","tel":"0425942560","location":{"lat":24.1745642,"lng":120.8820571}},{"name":"和平派出所","address":"臺中市和平區東關路3段270號","tel":"0425941324","location":{"lat":24.1745642,"lng":120.8820571}},{"name":"四平派出所","address":"臺中市北屯區昌平路2段63號","tel":"0424222714","location":{"lat":24.192476,"lng":120.682157}},{"name":"四德派出所","address":"臺中市霧峰區四德路541號","tel":"0423398281","location":{"lat":24.0603792,"lng":120.6664643}},{"name":"國光派出所","address":"臺中市大里區永大街5號","tel":"0424180232","location":{"lat":24.1101005,"lng":120.6787412}},{"name":"土牛派出所","address":"臺中市石岡區豐勢路19號","tel":"0425817493","location":{"lat":24.260112,"lng":120.8165482}},{"name":"坪林派出所","address":"臺中市太平區中山路1段215號","tel":"0423937396","location":{"lat":24.1422514,"lng":120.7325132}},{"name":"外埔分駐所","address":"臺中市外埔區六分路350號","tel":"0426832690","location":{"lat":24.3322341,"lng":120.6556066}},{"name":"大墩派出所","address":"臺中市南屯區大墩路229號","tel":"0424724871","location":{"lat":24.1420524,"lng":120.6497415}},{"name":"大安分駐所","address":"臺中市大安區中山南路300號","tel":"0426713320","location":{"lat":24.3455879,"lng":120.5871041}},{"name":"大棟派出所","address":"臺中市和平區雪山路2號","tel":"0425971106","location":{"lat":24.2436434,"lng":120.9220009}},{"name":"大楊派出所","address":"臺中市清水區神清路46號","tel":"0426202409","location":{"lat":24.2732369,"lng":120.6310724}},{"name":"大甲分局","address":"臺中市大甲區文武路1號","tel":"0426872039","location":{"lat":24.345283,"lng":120.626886}},{"name":"大甲派出所","address":"臺中市大甲區大甲里文武路1號","tel":"0426872047","location":{"lat":24.345283,"lng":120.626886}},{"name":"大秀派出所","address":"臺中市清水區五權路438號","tel":"0426265404","location":{"lat":24.2802586,"lng":120.5536837}},{"name":"大肚分駐所","address":"臺中市大肚區沙田路3段38號","tel":"0426992167","location":{"lat":24.1549461,"lng":120.5443928}},{"name":"大誠分駐所","address":"臺中市中區成功路302號","tel":"0422221373","location":{"lat":24.1439216,"lng":120.6795203}},{"name":"大里分駐所","address":"臺中市大里區新興路5號","tel":"0424060634","location":{"lat":24.0979896,"lng":120.6768886}},{"name":"大雅分駐所","address":"臺中市大雅區中清路2段172號","tel":"0425662054","location":{"lat":24.2229984,"lng":120.6480125}},{"name":"天輪派出所","address":"臺中市和平區東關路2段33號","tel":"0425941193","location":{"lat":24.1823256,"lng":120.9255821}},{"name":"太平分局","address":"臺中市太平區中山路1段215號","tel":"0423938100","location":{"lat":24.1422514,"lng":120.7325132}},{"name":"太平派出所","address":"臺中市太平區中興東路21號","tel":"0422780418","location":{"lat":24.1299227,"lng":120.7195078}},{"name":"安定派出所","address":"臺中市外埔區土城路110號","tel":"0426831522","location":{"lat":24.3450382,"lng":120.7045208}},{"name":"安寧派出所","address":"臺中市梧棲區中棲路2段18號","tel":"0426560343","location":{"lat":24.25002,"lng":120.5368461}},{"name":"宏龍派出所","address":"臺中市太平區光興路900號","tel":"0422702700","location":{"lat":24.1094601,"lng":120.7301257}},{"name":"工業區派出所","address":"臺中市西屯區工業五路2之1號","tel":"0423596317","location":{"lat":24.1690782,"lng":120.6082629}},{"name":"市政派出所","address":"臺中市西屯區市政路456號","tel":"0422513312","location":{"lat":24.1594604,"lng":120.6389939}},{"name":"德基派出所","address":"臺中市和平區和平路2段16之1號","tel":"0425980439","location":{"lat":24.1812189,"lng":120.9115391}},{"name":"志良派出所","address":"臺中市和平區中興路2段47號","tel":"0425901040","location":{"lat":24.3384399,"lng":121.313614}},{"name":"成功派出所","address":"臺中市大里區成功路9號","tel":"0424969293","location":{"lat":24.0846914,"lng":120.6977338}},{"name":"文昌派出所","address":"臺中市北屯區文昌東三街48號","tel":"0422377714","location":{"lat":24.1703087,"lng":120.6805951}},{"name":"文正派出所","address":"臺中市北區中正路440號","tel":"0422011252","location":{"lat":24.146893,"lng":120.6746498}},{"name":"新平派出所","address":"臺中市太平區新平路3段72號","tel":"0423912446","location":{"lat":24.1505022,"lng":120.7203231}},{"name":"新社分駐所","address":"臺中市新社區興社街2段28之3號","tel":"0425811401","location":{"lat":24.2173787,"lng":120.8161154}},{"name":"日南派出所","address":"臺中市大甲區中山路2段165號","tel":"0426813700","location":{"lat":24.37929,"lng":120.653527}},{"name":"明秀派出所","address":"臺中市沙鹿區鎮南路1段450號","tel":"0426314309","location":{"lat":24.2159545,"lng":120.571229}},{"name":"春社派出所","address":"臺中市南屯區忠勇路23之5號","tel":"0423824719","location":{"lat":24.1361846,"lng":120.6116195}},{"name":"月眉派出所","address":"臺中市后里區三月路19號","tel":"0425562384","location":{"lat":24.3110796,"lng":120.6910432}},{"name":"東勢分局","address":"臺中市東勢區豐勢路512號","tel":"0423302139","location":{"lat":24.2583553,"lng":120.8280348}},{"name":"東勢派出所","address":"臺中市東勢區豐勢路512號","tel":"0425873802","location":{"lat":24.2583553,"lng":120.8280348}},{"name":"東區分駐所","address":"臺中市東區進化路16號","tel":"0422124179","location":{"lat":24.1412967,"lng":120.6943886}},{"name":"東山派出所","address":"臺中市北屯區東山路2段30號","tel":"0422392713","location":{"lat":24.1790614,"lng":120.7403303}},{"name":"東興派出所","address":"臺中市新社區興社街1段285號","tel":"0425811476","location":{"lat":24.2069213,"lng":120.8214488}},{"name":"松安派出所","address":"臺中市北屯區松竹路2段5號","tel":"0422461750","location":{"lat":24.1823452,"lng":120.6998741}},{"name":"松茂派出所","address":"臺中市和平區中興路2段54號","tel":"0425989692","location":{"lat":24.3384399,"lng":121.313614}},{"name":"桃山派出所","address":"臺中市和平區東崎路1段桃山巷7之2號","tel":"0425911314","location":{"lat":24.340028,"lng":120.9357729}},{"name":"梧棲分駐所","address":"臺中市梧棲區中興路210號","tel":"0426562860","location":{"lat":24.25485,"lng":120.533783}},{"name":"梨山分駐所","address":"臺中市和平區中正路103號","tel":"0425989580","location":{"lat":24.2540832,"lng":121.2530766}},{"name":"正義派出所","address":"臺中市南區復興路3段159號","tel":"0422223319","location":{"lat":24.130686,"lng":120.673481}},{"name":"民權派出所","address":"臺中市西區民權路258號","tel":"0422012710","location":{"lat":24.146163,"lng":120.6707001}},{"name":"水湳派出所","address":"臺中市北屯區中清路99號","tel":"0422979937","location":{"lat":24.1783027,"lng":120.6681647}},{"name":"永源派出所","address":"臺中市新社區中和街1段20號","tel":"0425811475","location":{"lat":24.1926912,"lng":120.8210609}},{"name":"永福派出所","address":"臺中市西屯區福科路372號","tel":"0424613009","location":{"lat":24.1844478,"lng":120.619628}},{"name":"永興派出所","address":"臺中市北區太原路2段228號","tel":"0422352735","location":{"lat":24.164933,"lng":120.6823035}},{"name":"沙鹿分駐所","address":"臺中市沙鹿區鎮政路12號","tel":"0426625032","location":{"lat":24.2345527,"lng":120.5662618}},{"name":"泰安派出所","address":"臺中市后里區安眉路1號","tel":"0425562340","location":{"lat":24.3216214,"lng":120.700135}},{"name":"海墘派出所","address":"臺中市大安區大安港路1160號","tel":"0426875845","location":{"lat":24.3793362,"lng":120.5862117}},{"name":"清水分局","address":"臺中市清水區鰲峰路23號","tel":"0426222022","location":{"lat":24.269288,"lng":120.574064}},{"name":"清水派出所","address":"臺中市清水區螯峰路23號","tel":"0426222054","location":{"lat":24.269288,"lng":120.574064}},{"name":"清泉派出所","address":"臺中市沙鹿區中清路2之39號","tel":"0426153884","location":{"lat":24.2460592,"lng":120.6099189}},{"name":"溪南派出所","address":"臺中市烏日區溪南路2段638號","tel":"0423351676","location":{"lat":24.0617051,"lng":120.6433533}},{"name":"潭北派出所","address":"臺中市潭子區潭子街3段56號","tel":"0425361651","location":{"lat":24.2164551,"lng":120.7059215}},{"name":"潭子分駐所","address":"臺中市潭子區中山路2段241巷3號","tel":"0425348866","location":{"lat":24.2098958,"lng":120.7047373}},{"name":"烏日分局","address":"臺中市烏日區中山路3段309號","tel":"0423369595","location":{"lat":24.1083925,"lng":120.6071264}},{"name":"烏日派出所","address":"臺中市烏日區中山路2段309號","tel":"0423381448","location":{"lat":24.106375,"lng":120.622468}},{"name":"犁份派出所","address":"臺中市龍井區遊園南路194號","tel":"0426312719","location":{"lat":24.182428,"lng":120.584242}},{"name":"瑞井派出所","address":"臺中市大肚區遊園路1段1之1號","tel":"0426910205-6","location":{"lat":24.1676368,"lng":120.5778285}},{"name":"環山派出所","address":"臺中市和平區中興路3段48號","tel":"0425802242","location":{"lat":24.3127062,"lng":121.2935983}},{"name":"石城派出所","address":"臺中市東勢區石城街297號","tel":"0425874473","location":{"lat":24.2851175,"lng":120.7891552}},{"name":"石岡分駐所","address":"臺中市石岡區豐勢路1021號","tel":"0425722781","location":{"lat":24.2749791,"lng":120.7805273}},{"name":"社口派出所","address":"臺中市神岡區中正路516號","tel":"0425625392","location":{"lat":24.250435,"lng":120.708389}},{"name":"神岡分駐所","address":"臺中市神岡區神岡路121號","tel":"0425622422","location":{"lat":24.257625,"lng":120.661094}},{"name":"福中派出所","address":"臺中市新社區美林45號","tel":"0425941364","location":{"lat":24.1692143,"lng":120.8315088}},{"name":"立人派出所","address":"臺中市北區天津路1段2號","tel":"0422973545","location":{"lat":24.1698913,"lng":120.6683897}},{"name":"立德派出所","address":"臺中市東區台中路99號","tel":"0422203248","location":{"lat":24.1333371,"lng":120.6836122}},{"name":"竹林派出所","address":"臺中市和平區東崎路1段89號","tel":"0425911114","location":{"lat":24.3050924,"lng":120.9245576}},{"name":"第一分局","address":"臺中市西區三民路1段178號","tel":"0422223725","location":{"lat":24.1385183,"lng":120.6757975}},{"name":"第三分局","address":"臺中市南區復興路3段157號","tel":"0422220498","location":{"lat":24.1306175,"lng":120.673427}},{"name":"第二分局","address":"臺中市北區太原路2段228號","tel":"0422351200","location":{"lat":24.164933,"lng":120.6823035}},{"name":"第五分局","address":"臺中市北屯區崇德路3段2號","tel":"0422427113","location":{"lat":24.1820492,"lng":120.6864967}},{"name":"第六分局","address":"臺中市西屯區市政路456號","tel":"0422513284","location":{"lat":24.1594604,"lng":120.6389939}},{"name":"第四分局","address":"臺中市南屯區向心南路811號","tel":"0423892110","location":{"lat":24.1339671,"lng":120.6433797}},{"name":"繼中派出所","address":"臺中市中區中山路9號","tel":"0422224119","location":{"lat":24.1373923,"lng":120.6837027}},{"name":"義里派出所","address":"臺中市后里區三豐路209號","tel":"0425562333","location":{"lat":24.255075,"lng":120.718002}},{"name":"翁子派出所","address":"臺中市豐原區北陽三街93號","tel":"0425226021","location":{"lat":24.2532723,"lng":120.734127}},{"name":"育才派出所","address":"臺中市北區三民路3段128號","tel":"0422223695","location":{"lat":24.1504927,"lng":120.6844878}},{"name":"臺中公園派出所","address":"臺中市北區雙十路1段65號","tel":"0422230097","location":{"lat":24.1443145,"lng":120.6857094}},{"name":"臺中市政府警察局","address":"臺中市西屯區文心路2段588號","tel":"0423274440","location":{"lat":24.1596851,"lng":120.6481302}},{"name":"茅埔派出所","address":"臺中市東勢區東關路243號","tel":"0425852472","location":{"lat":24.201449,"lng":120.8397981}},{"name":"萬豐派出所","address":"臺中市霧峰區中正路161號","tel":"0423302873","location":{"lat":24.0261818,"lng":120.6967636}},{"name":"西區分駐所","address":"臺中市西區三民路1段178號","tel":"0422222632","location":{"lat":24.1385183,"lng":120.6757975}},{"name":"西屯派出所","address":"臺中市西屯區西屯路3段40號","tel":"0427012717","location":{"lat":24.1810433,"lng":120.63792}},{"name":"西岐派出所","address":"臺中市大甲區順帆路94號","tel":"0426811320","location":{"lat":24.420018,"lng":120.6288327}},{"name":"谷關派出所","address":"臺中市和平區博愛村東關路1段125號","tel":"0425951114","location":{"lat":24.2000822,"lng":121.0008143}},{"name":"豐原分局","address":"臺中市豐原區葫蘆里中山路225號","tel":"0425224684","location":{"lat":24.2436442,"lng":120.7135921}},{"name":"豐原派出所","address":"臺中市豐原區中山路508號","tel":"0425228941","location":{"lat":24.250737,"lng":120.7146406}},{"name":"豐東派出所","address":"臺中市豐原區豐東路162號","tel":"0425286917","location":{"lat":24.2485785,"lng":120.7305279}},{"name":"豐洲派出所","address":"臺中市豐原區豐洲里豐洲路489號","tel":"0425272585","location":{"lat":24.2573122,"lng":120.713506}},{"name":"追分派出所","address":"臺中市大肚區沙田路1段290號","tel":"0426932108","location":{"lat":24.1211616,"lng":120.5703129}},{"name":"雙崎派出所","address":"臺中市和平區東崎路2段39號","tel":"0425911214","location":{"lat":24.2921846,"lng":120.911058}},{"name":"雪山派出所","address":"臺中市和平區雪山路10號","tel":"0425883514","location":{"lat":24.2436434,"lng":120.9220009}},{"name":"霧峰分局","address":"臺中市霧峰區中正路1236號","tel":"0423302139","location":{"lat":24.0748583,"lng":120.6999866}},{"name":"霧峰派出所","address":"臺中市霧峰區民權街37號","tel":"0423393013","location":{"lat":24.0667029,"lng":120.6999348}},{"name":"頂街派出所","address":"臺中市豐原區東北街1-1號","tel":"0420228150","location":{"lat":24.254863,"lng":120.723011}},{"name":"頭家派出所","address":"臺中市潭子區中山路1段150號","tel":"0425353818","location":{"lat":24.1904848,"lng":120.7025124}},{"name":"頭汴派出所","address":"臺中市太平區長龍路2段11巷2號","tel":"0422704962","location":{"lat":24.1236303,"lng":120.7505485}},{"name":"馬岡派出所","address":"臺中市大雅區雅潭路150號","tel":"0425662064","location":{"lat":24.2159083,"lng":120.6807937}},{"name":"高美派出所","address":"臺中市清水區護岸路29號","tel":"0426275672","location":{"lat":24.3113596,"lng":120.5625434}},{"name":"麗水派出所","address":"臺中市龍井區臨港東路2段317號","tel":"0426395994","location":{"lat":24.1973212,"lng":120.5189103}},{"name":"黎明派出所","address":"臺中市南屯區干城街2號","tel":"0422528219","location":{"lat":24.1558029,"lng":120.6340111}},{"name":"龍井分駐所","address":"臺中市龍井區沙田路4段245號","tel":"0426353054","location":{"lat":24.1926784,"lng":120.5460288}},{"name":"龍東派出所","address":"臺中市龍井區茄投路67號","tel":"0426397043","location":{"lat":24.1784,"lng":120.5304602}},{"name":"龍津派出所","address":"臺中市龍井區中央路1段165巷36號","tel":"0426396084","location":{"lat":24.2006306,"lng":120.523464}},{"name":"七股分駐所","address":"臺南市七股區玉城里玉城24號","tel":"06-7872154","location":{"lat":23.119722,"lng":120.103333}},{"name":"三股派出所","address":"臺南市七股區三股里7鄰72號","tel":"06-7881404","location":{"lat":23.1019578,"lng":120.1200735}},{"name":"下營分駐所","address":"臺南市下營區中山路1段226號","tel":"06-6892032","location":{"lat":23.2360924,"lng":120.265114}},{"name":"中山路派出所","address":"臺南市新營區中山路119號","tel":"066322306","location":{"lat":23.3046742,"lng":120.3176725}},{"name":"中正派出所","address":"臺南市中西區中正路347號","tel":"062410135","location":{"lat":22.9933735,"lng":120.1940679}},{"name":"中浯派出所","address":"臺南市學甲區中洲里中洲287號","tel":"06-7833907","location":{"lat":23.244678,"lng":120.1564189}},{"name":"中鹽派出所","address":"臺南市七股區中寮里23之65號","tel":"06-7800213","location":{"lat":23.155898,"lng":120.109896}},{"name":"二溪派出所","address":"臺南市大內區石城里石仔瀨74號","tel":"06-5761039","location":{"lat":0,"lng":0}},{"name":"仁德分駐所","address":"臺南市仁德區中山路624號","tel":"06-2702664","location":{"lat":22.9692003,"lng":120.2732248}},{"name":"仙草派出所","address":"臺南市白河區仙草里仙草7之1號","tel":"06-6854044","location":{"lat":23.3454433,"lng":120.473312}},{"name":"佳興派出所","address":"臺南市佳里區興化里6鄰441號","tel":"06-7261404","location":{"lat":23.1874615,"lng":120.1805789}},{"name":"佳里分局","address":"臺南市佳里區忠孝路7號","tel":"06-7222012","location":{"lat":23.1652782,"lng":120.1766055}},{"name":"佳里派出所","address":"臺南市佳里區忠孝路7號","tel":"06-7224145","location":{"lat":23.1652782,"lng":120.1766055}},{"name":"依仁派出所","address":"臺南市仁德區中洲里中洲12號","tel":"06-2661245","location":{"lat":22.90832,"lng":120.2509052}},{"name":"保東派出所","address":"臺南市關廟區關新路1段836號","tel":"06-5955799","location":{"lat":22.98278,"lng":120.3116142}},{"name":"內角派出所","address":"臺南市白河區內角里內角30號","tel":"06-6816374","location":{"lat":23.3975143,"lng":120.4391585}},{"name":"公園派出所","address":"臺南市北區文成三路550號","tel":"062520392","location":{"lat":23.015922,"lng":120.1984096}},{"name":"六甲分駐所","address":"臺南市六甲區中山路210號","tel":"06-6982139","location":{"lat":23.2360924,"lng":120.265114}},{"name":"北寮派出所","address":"臺南市南化區玉山里54號","tel":"065772058\r\n06 5772057","location":{"lat":0,"lng":0}},{"name":"北門分駐所","address":"臺南市北門區北門里舊埕22號","tel":"06-7862041","location":{"lat":23.270936,"lng":120.122114}},{"name":"北門派出所","address":"臺南市北區北門路2段3號","tel":"062224230","location":{"lat":22.9978297,"lng":120.2116602}},{"name":"南化分駐所","address":"臺南市南化區南化里170號","tel":"06-5771179","location":{"lat":23.043524,"lng":120.476989}},{"name":"南門派出所","address":"臺南市中西區南寧街144號","tel":"062148283","location":{"lat":22.9853237,"lng":120.2005211}},{"name":"南雄派出所","address":"臺南市關廟區田大路1號","tel":"06-5551907","location":{"lat":0,"lng":0}},{"name":"博愛派出所","address":"臺南市中西區北門路1段103號","tel":"062287553","location":{"lat":22.9926248,"lng":120.2115221}},{"name":"和緯派出所","address":"臺南市北區文賢路650號","tel":"062597695","location":{"lat":23.010042,"lng":120.1940217}},{"name":"和順派出所","address":"臺南市安南區安和路4段569號","tel":"063554134","location":{"lat":23.0623458,"lng":120.2184644}},{"name":"唪口派出所","address":"臺南市新化區中山路660巷50號","tel":"06-5982924","location":{"lat":23.0380012,"lng":120.2979952}},{"name":"善化分局","address":"臺南市善化區興農路461號","tel":"06-5817434","location":{"lat":23.1298884,"lng":120.2684129}},{"name":"善化派出所","address":"臺南市善化區中山路353之1號","tel":"06-5817007","location":{"lat":23.1316688,"lng":120.2928709}},{"name":"喜樹派出所","address":"臺南市南區喜樹路151巷1號","tel":"062622407","location":{"lat":22.9410443,"lng":120.1791227}},{"name":"土城派出所","address":"臺南市安南區城西街1段40號","tel":"062577403","location":{"lat":23.062361,"lng":120.1291292}},{"name":"埤頭派出所","address":"臺南市麻豆區小埤里埤頭5號","tel":"06-5701654","location":{"lat":23.19147,"lng":120.2277018}},{"name":"塭內派出所","address":"臺南市佳里區龍安里8鄰84號","tel":"06-7891415","location":{"lat":23.1297701,"lng":120.1675902}},{"name":"大丘派出所","address":"臺南市六甲區大丘里大丘園5號","tel":"06-6981835","location":{"lat":0,"lng":0}},{"name":"大內分駐所","address":"臺南市大內區石城里石仔瀨74號","tel":"06-5761039","location":{"lat":0,"lng":0}},{"name":"大林派出所","address":"臺南市南區大同路2段456號","tel":"062150209","location":{"lat":22.9735944,"lng":120.2143197}},{"name":"大橋派出所","address":"臺南市永康區大橋二街146號","tel":"06-2044835","location":{"lat":23.0202047,"lng":120.2295276}},{"name":"大潭派出所","address":"臺南市歸仁區長榮路1段295號","tel":"06-2781450","location":{"lat":22.9099145,"lng":120.2753411}},{"name":"大灣派出所","address":"臺南市永康區民族路478號","tel":"06-2712274","location":{"lat":23.0088111,"lng":120.264458}},{"name":"太宮派出所","address":"臺南市新營區太南里太子宮201號","tel":"066524753","location":{"lat":23.2935613,"lng":120.2774678}},{"name":"太廟派出所","address":"臺南市仁德區太子路461號","tel":"06-2726472","location":{"lat":22.9912154,"lng":120.2604221}},{"name":"媽廟派出所","address":"臺南市歸仁區中正北路3段100號","tel":"06-2309731","location":{"lat":22.9936214,"lng":120.2936748}},{"name":"子龍派出所","address":"臺南市佳里區子龍里5鄰96號","tel":"06-7262290","location":{"lat":23.1696067,"lng":120.2079953}},{"name":"學甲分局","address":"臺南市學甲區華宗路294號","tel":"06-7832710","location":{"lat":23.230066,"lng":120.1828969}},{"name":"學甲派出所","address":"臺南市學甲區華宗路294號","tel":"06-7833208","location":{"lat":23.230066,"lng":120.1828969}},{"name":"宅港派出所","address":"臺南市學甲區宅港里宅子港52號","tel":"06-7833904","location":{"lat":23.2563073,"lng":120.1978952}},{"name":"安中派出所","address":"臺南市安南區安中路1段788號","tel":"062467808","location":{"lat":23.0433032,"lng":120.195504}},{"name":"安佃派出所","address":"臺南市安南區海佃路4段496號","tel":"062567620","location":{"lat":23.0641926,"lng":120.1737421}},{"name":"安南派出所","address":"臺南市安南區安中路3段396號","tel":"062567910","location":{"lat":23.0496024,"lng":120.1745857}},{"name":"安定分駐所","address":"臺南市安定區保西里安定443號","tel":"06-5922277","location":{"lat":0,"lng":0}},{"name":"安平派出所","address":"臺南市安平區安平路27號","tel":"062252598","location":{"lat":22.9990232,"lng":120.1677078}},{"name":"安業派出所","address":"臺南市麻豆區安業里安業112號","tel":"06-5722804","location":{"lat":23.1593308,"lng":120.2463372}},{"name":"安溪派出所","address":"臺南市後壁區長安里中寮59號","tel":"06-6361302","location":{"lat":0,"lng":0}},{"name":"安順派出所","address":"臺南市安南區安和路1段205號","tel":"062562405","location":{"lat":23.0308598,"lng":120.2126448}},{"name":"官田分駐所","address":"臺南市官田區中山路1段131號","tel":"06-5791800","location":{"lat":23.193345,"lng":120.3114338}},{"name":"官鎮派出所","address":"臺南市官田區官田村官田383號","tel":"06-6901160","location":{"lat":23.1809012,"lng":120.3373703}},{"name":"實踐派出所","address":"臺南市北區大武街162號","tel":"062520742","location":{"lat":23.0143387,"lng":120.2160912}},{"name":"將富派出所","address":"臺南市將軍區將富里將富50號","tel":"06-7942664","location":{"lat":23.216876,"lng":120.137211}},{"name":"將軍分駐所","address":"臺南市將軍區忠興里6號","tel":"06-7942182","location":{"lat":23.203342,"lng":120.158546}},{"name":"山上分駐所","address":"臺南市山上區山上里山上35號","tel":"06-5781019","location":{"lat":0,"lng":0}},{"name":"岡林派出所","address":"臺南市左鎮區左鎮里122號","tel":"06-5731017","location":{"lat":23.059456,"lng":120.40596}},{"name":"左鎮分駐所","address":"臺南市左鎮區左鎮里122號","tel":"06-5731017","location":{"lat":23.059456,"lng":120.40596}},{"name":"府東派出所","address":"臺南市東區裕孝路136號","tel":"063316119","location":{"lat":22.9867546,"lng":120.2434902}},{"name":"延平派出所","address":"臺南市佳里區頂廓里10鄰118號","tel":"06-7223094","location":{"lat":23.1416985,"lng":120.2512728}},{"name":"後壁分駐所","address":"臺南市後壁區後壁里後壁4號","tel":"06-6872744","location":{"lat":23.367781,"lng":120.363133}},{"name":"後港派出所","address":"臺南市七股區大潭里2鄰28號","tel":"06-7941924","location":{"lat":0,"lng":0}},{"name":"後營派出所","address":"臺南市西港區後營里13鄰281號","tel":"06-7952644","location":{"lat":23.121164,"lng":120.201782}},{"name":"後甲派出所","address":"臺南市東區富農街1段267號","tel":"06-2676364","location":{"lat":22.9847019,"lng":120.2354533}},{"name":"後鎮派出所","address":"臺南市新營區建國路110號","tel":"066328752","location":{"lat":23.3304977,"lng":120.312733}},{"name":"復興派出所","address":"臺南市永康區中華路34號","tel":"06-3115874","location":{"lat":23.0009684,"lng":120.2352714}},{"name":"德南派出所","address":"臺南市仁德區中正路2段271號","tel":"06-2791341","location":{"lat":22.9504939,"lng":120.2515239}},{"name":"德高派出所","address":"臺南市東區崇善路740號","tel":"062693405","location":{"lat":22.9665698,"lng":120.2323515}},{"name":"拔林派出所","address":"臺南市官田區拔林里拔子林74號","tel":"06-6901362","location":{"lat":0,"lng":0}},{"name":"文化派出所","address":"臺南市東區崇明路384號","tel":"062907243","location":{"lat":22.9760232,"lng":120.2211731}},{"name":"文山派出所","address":"臺南市北門區中樞里溪底寮56號","tel":"06-7862324","location":{"lat":23.250514,"lng":120.128675}},{"name":"文賢派出所","address":"臺南市仁德區二行路2段600號","tel":"06-2661788","location":{"lat":22.9454414,"lng":120.231411}},{"name":"新化分局","address":"臺南市新化區中山路91號","tel":"06-5902003","location":{"lat":23.0441696,"lng":120.3154865}},{"name":"新化派出所","address":"臺南市新化區中山路91號","tel":"06-5901022","location":{"lat":23.0441696,"lng":120.3154865}},{"name":"新市分駐所","address":"臺南市新市區新市里復興路2號","tel":"06-5993019","location":{"lat":23.025058,"lng":120.313789}},{"name":"新營分局","address":"臺南市新營區中山路119號","tel":"066323297","location":{"lat":23.3046742,"lng":120.3176725}},{"name":"新興派出所","address":"臺南市南區中華西路1段67之1號","tel":"062611428","location":{"lat":22.9740405,"lng":120.1837881}},{"name":"望明派出所","address":"臺南市玉井區玉田村中山路2號","tel":"065742479\r\n06 5742445","location":{"lat":23.120319,"lng":120.4629953}},{"name":"東原派出所","address":"臺南市東山區東原里前大埔10號","tel":"06-6861051","location":{"lat":0,"lng":0}},{"name":"東寧派出所","address":"臺南市東區林森路2段250號","tel":"062375433","location":{"lat":22.9917444,"lng":120.2241051}},{"name":"東山分駐所","address":"臺南市東山區所前路219號","tel":"06-6800024","location":{"lat":23.3261408,"lng":120.4049927}},{"name":"東昌派出所","address":"臺南市善化區嘉南里茄拔350號","tel":"06-5837379","location":{"lat":23.1368976,"lng":120.3222448}},{"name":"東河派出所","address":"臺南市東山區東河里貝吉耍16號","tel":"06-6231630","location":{"lat":0,"lng":0}},{"name":"東門派出所","address":"臺南市東區崇善路55號","tel":"062690098","location":{"lat":22.982007,"lng":120.2216403}},{"name":"果毅派出所","address":"臺南市柳營區神農里296號","tel":"06-6231514","location":{"lat":0,"lng":0}},{"name":"柳營分駐所","address":"臺南市柳營區柳營路1段785號","tel":"066223424","location":{"lat":23.2790624,"lng":120.3216251}},{"name":"楠西分駐所","address":"臺南市楠西區中正路224號","tel":"06-5751252\n06-5751183","location":{"lat":23.1745046,"lng":120.4863532}},{"name":"歸仁分局","address":"臺南市歸仁區六甲村中正南路1段1209號","tel":"06-2304964","location":{"lat":22.9444799,"lng":120.2774144}},{"name":"歸仁派出所","address":"臺南市歸仁區忠孝路160號","tel":"06-2304028","location":{"lat":23.037784,"lng":120.302668}},{"name":"歸南派出所","address":"臺南市歸仁區中正南路1段1209號","tel":"06-2307887","location":{"lat":22.9444799,"lng":120.2774144}},{"name":"民權派出所","address":"臺南市中西區民權路2段202號","tel":"062223002","location":{"lat":22.995557,"lng":120.20172}},{"name":"民治派出所","address":"臺南市新營區民治路49號","tel":"066322164","location":{"lat":23.3104989,"lng":120.3131095}},{"name":"永信派出所","address":"臺南市永康區國華街102巷110號","tel":"06-2014059","location":{"lat":23.0156932,"lng":120.2485375}},{"name":"永康分局","address":"臺南市永康區龍埔街137號","tel":"06-2333324","location":{"lat":23.0338436,"lng":120.2639183}},{"name":"永康派出所","address":"臺南市永康區中山北路2號","tel":"06-2326081","location":{"lat":23.0258971,"lng":120.2573466}},{"name":"河東派出所","address":"臺南市白河區仙草里仙草7之1號","tel":"06-6854044","location":{"lat":23.3454433,"lng":120.473312}},{"name":"海南派出所","address":"臺南市安南區海佃路1段419號","tel":"062588946","location":{"lat":23.0286271,"lng":120.1904153}},{"name":"海安派出所","address":"臺南市中西區民生路2段273號","tel":"062290153","location":{"lat":22.9965584,"lng":120.1922087}},{"name":"海寮派出所","address":"臺南市安定區海寮里海寮126號","tel":"06-5931251","location":{"lat":23.097811,"lng":120.210695}},{"name":"港口派出所","address":"臺南市安定區港南里1之13號","tel":"06-5932235","location":{"lat":0,"lng":0}},{"name":"湖山派出所","address":"臺南市官田區嘉南里嘉南41號","tel":"06-6982533","location":{"lat":23.1354306,"lng":120.323299}},{"name":"溪美派出所","address":"臺南市善化區溪美里溪尾115號","tel":"06-5817981","location":{"lat":23.1540857,"lng":120.2868909}},{"name":"潭頂派出所","address":"臺南市新市區潭頂里398號","tel":"06-5991934","location":{"lat":23.0749404,"lng":120.3262075}},{"name":"灣裡派出所","address":"臺南市南區灣裡路61巷2號","tel":"062622819","location":{"lat":22.9327706,"lng":120.1812432}},{"name":"玉井分局","address":"臺南市玉井區玉田村中山路2號","tel":"06-5742007","location":{"lat":23.120319,"lng":120.4629953}},{"name":"玉井派出所","address":"臺南市玉井區玉田村中山路2號","tel":"065742479\r\n06 5742445","location":{"lat":23.120319,"lng":120.4629953}},{"name":"玉山派出所","address":"臺南市南化區玉山里54號","tel":"065772058\r\n06 5772057","location":{"lat":0,"lng":0}},{"name":"玉豐派出所","address":"臺南市白河區玉豐里海豐厝87號","tel":"06-6854887","location":{"lat":23.3782241,"lng":120.416011}},{"name":"王爺派出所","address":"臺南市六甲區王爺里王爺宮15號","tel":"06-6981834","location":{"lat":23.223995,"lng":120.377487}},{"name":"白河分局","address":"臺南市白河區中山路128號","tel":"066852006","location":{"lat":23.3508473,"lng":120.4165338}},{"name":"白河派出所","address":"臺南市白河區中正路128號","tel":"06-6852018","location":{"lat":23.3496418,"lng":120.4125047}},{"name":"知義派出所","address":"臺南市新化區山腳里頂山腳182之1號","tel":"06-5902949","location":{"lat":23.0214619,"lng":120.3146461}},{"name":"立人派出所","address":"臺南市北區西門路3段43號","tel":"062224227","location":{"lat":23.0017224,"lng":120.202679}},{"name":"竹埔派出所","address":"臺南市鹽水區竹埔里1號","tel":"066551960","location":{"lat":23.3090241,"lng":120.2720506}},{"name":"竹橋派出所","address":"臺南市七股區竹橋里11鄰125號","tel":"06-7891002","location":{"lat":0,"lng":0}},{"name":"竹門派出所","address":"臺南市白河區竹門里竹子門125號","tel":"06-6854324","location":{"lat":23.3764837,"lng":120.4453156}},{"name":"第一分局","address":"臺南市東區崇善路740號","tel":"062684867","location":{"lat":22.9665698,"lng":120.2323515}},{"name":"第三分局","address":"臺南市安南區安中路3段396號","tel":"062567666","location":{"lat":23.0496024,"lng":120.1745857}},{"name":"第二分局","address":"臺南市中西區南寧街144號","tel":"062139070","location":{"lat":22.9853237,"lng":120.2005211}},{"name":"第五分局","address":"臺南市北區文賢路650號","tel":"062598595","location":{"lat":23.010042,"lng":120.1940217}},{"name":"第六分局","address":"臺南市南區中華南路2段241號","tel":"062640556","location":{"lat":22.9613757,"lng":120.1880498}},{"name":"第四分局","address":"臺南市西區育平路312號","tel":"062954116","location":{"lat":22.9943441,"lng":120.1687191}},{"name":"總爺派出所","address":"臺南市麻豆區南勢里南勢93號","tel":"06-5724310","location":{"lat":23.1839362,"lng":120.2670538}},{"name":"育平派出所","address":"臺南市安平區育平路321號","tel":"062982674","location":{"lat":22.9923188,"lng":120.1672952}},{"name":"臺南市政府警察局","address":"臺南市新營區中正路3號","tel":"066322210","location":{"lat":23.318569,"lng":120.315872}},{"name":"苓和派出所","address":"臺南市將軍區苓和里苓和100號","tel":"06-7942855","location":{"lat":23.216876,"lng":120.137211}},{"name":"茄拔派出所","address":"臺南市善化區嘉南里茄拔350號","tel":"06-5837379","location":{"lat":23.1368976,"lng":120.3222448}},{"name":"茅港派出所","address":"臺南市下營區茅港里茅港尾298號","tel":"06-6892454","location":{"lat":0,"lng":0}},{"name":"莊敬派出所","address":"臺南市東區東光路2段66號","tel":"062385398","location":{"lat":22.9969036,"lng":120.2317161}},{"name":"菁寮派出所","address":"臺南市後壁區菁寮里菁寮77號","tel":"06-6621401","location":{"lat":23.381121,"lng":120.337528}},{"name":"華平派出所","address":"臺南市安平區建平八街2號","tel":"062951720","location":{"lat":22.9904931,"lng":120.1819524}},{"name":"華雅派出所","address":"臺南市鹽水區歡雅里歡雅25號","tel":"066552307","location":{"lat":23.291961,"lng":120.240603}},{"name":"蘇厝派出所","address":"臺南市安定區蘇林里蘇厝70號","tel":"06-5921514","location":{"lat":0,"lng":0}},{"name":"蚵寮派出所","address":"臺南市北門區保吉里蚵寮62之9號","tel":"06-7860121","location":{"lat":0,"lng":0}},{"name":"西港分駐所","address":"臺南市西港區中山路337號","tel":"06-7952045","location":{"lat":23.1226014,"lng":120.2030908}},{"name":"那拔派出所","address":"臺南市新化區那拔里那拔林75號","tel":"06-5911051","location":{"lat":23.0682923,"lng":120.3510662}},{"name":"重溪派出所","address":"臺南市柳營區篤農里229號","tel":"06-6231664","location":{"lat":23.1416985,"lng":120.2512728}},{"name":"金華派出所","address":"臺南市南區金華路2段250號","tel":"062640007","location":{"lat":22.9814488,"lng":120.1916256}},{"name":"長安派出所","address":"臺南市後壁區頂長里長短樹4號","tel":"06-6622664","location":{"lat":0,"lng":0}},{"name":"長安派出所","address":"臺南市安南區長溪路3段313號","tel":"062569531","location":{"lat":23.0666261,"lng":120.1971987}},{"name":"長樂派出所","address":"臺南市中西區民權路3段230號","tel":"062222422","location":{"lat":22.9980713,"lng":120.193881}},{"name":"開元派出所","address":"臺南市北區開元路145號","tel":"062345461","location":{"lat":23.0068164,"lng":120.21845}},{"name":"關嶺派出所","address":"臺南市白河區關嶺里關子嶺14號","tel":"06-6822629","location":{"lat":23.3395817,"lng":120.5046747}},{"name":"關廟分駐所","address":"臺南市關廟區文衡路19號","tel":"06-5952013","location":{"lat":22.960924,"lng":120.3260617}},{"name":"青鯤鯓派出所","address":"臺南市將軍區鯤鯓里鯤鯓95號","tel":"06-7920204","location":{"lat":0,"lng":0}},{"name":"頂洲派出所","address":"臺南市學甲區三慶里頂洲110之1號","tel":"06-7810040","location":{"lat":23.2875614,"lng":120.2018228}},{"name":"頭社派出所","address":"臺南市大內區頭社里頭社60號","tel":"06-5761564","location":{"lat":23.144154,"lng":120.385061}},{"name":"顯宮派出所","address":"臺南市安南區媽祖宮路50號","tel":"062841320","location":{"lat":23.0400126,"lng":120.1298883}},{"name":"鯤鯓派出所","address":"臺南市南區鯤鯓路161號","tel":"062627306","location":{"lat":22.961914,"lng":120.1691379}},{"name":"鳳林派出所","address":"臺南市六甲區中社里林鳳營154號","tel":"06-6982390","location":{"lat":23.238943,"lng":120.325088}},{"name":"鹽埕派出所","address":"臺南市南區中華南路2段241號","tel":"062651592","location":{"lat":22.9613757,"lng":120.1880498}},{"name":"鹽水分駐所","address":"臺南市鹽水區武廟路23號","tel":"066521032","location":{"lat":23.3209014,"lng":120.2655873}},{"name":"鹽行派出所","address":"臺南市永康區中正北路65號","tel":"06-2531444","location":{"lat":23.0417382,"lng":120.2395368}},{"name":"鹿田派出所","address":"臺南市楠西區中正路224號","tel":"06-5751252\n06-5751183","location":{"lat":23.1745046,"lng":120.4863532}},{"name":"麻豆分局","address":"臺南市麻豆區興國路6號","tel":"06-5722031","location":{"lat":23.1828157,"lng":120.2477912}},{"name":"麻豆派出所","address":"臺南市麻豆區興國路6號","tel":"06-5722104","location":{"lat":23.1828157,"lng":120.2477912}},{"name":"龍崎分駐所","address":"臺南市龍崎區崎頂里新市子37號","tel":"06-5941010","location":{"lat":22.956061,"lng":120.376699}},{"name":"龍潭派出所","address":"臺南市永康區龍埔街137號","tel":"06-2327954","location":{"lat":23.0338436,"lng":120.2639183}},{"name":"龍船派出所","address":"臺南市龍崎區石糟里米市園1號","tel":"06-5941099","location":{"lat":22.9546,"lng":120.383323}},{"name":"三張犁派出所","address":"臺北市信義區信義路5段17號","tel":"0227295561","location":{"lat":25.0331181,"lng":121.5676759}},{"name":"三民派出所","address":"臺北市松山區三民里民生東路5段163之1號","tel":"0227621708","location":{"lat":25.059274,"lng":121.562837}},{"name":"中山一派出所","address":"臺北市中山區中山北路1段110號","tel":"0225519321","location":{"lat":25.0499912,"lng":121.5214319}},{"name":"中山二派出所","address":"臺北市中山區中山北路2段90號","tel":"0225517771","location":{"lat":25.0577642,"lng":121.5226348}},{"name":"中山分局","address":"臺北市中山區中山北路2段1號","tel":"0225412491","location":{"lat":25.0524572,"lng":121.522838}},{"name":"中崙派出所","address":"臺北市南京東路4段12號","tel":"0225790718","location":{"lat":25.051286,"lng":121.552394}},{"name":"中正一分局","address":"臺北市中正區公園路15號","tel":"0223716426","location":{"lat":25.0451056,"lng":121.5173216}},{"name":"中正二分局  ","address":"臺北市中正區南海路35號","tel":"0223751825","location":{"lat":25.0320412,"lng":121.5139746}},{"name":"五分埔派出所","address":"臺北市信義區永吉路333號","tel":"0227653349","location":{"lat":25.0456629,"lng":121.575843}},{"name":"仁愛路派出所","address":"臺北市中正區仁愛路1段19號","tel":"0223212067","location":{"lat":25.0389572,"lng":121.5226615}},{"name":"介壽路派出所","address":"臺北市中正區公園路54號","tel":"0223113081","location":{"lat":25.03994,"lng":121.5155599}},{"name":"信義分局   ","address":"臺北市信義區信義路5段17號","tel":"0227234739","location":{"lat":25.0331181,"lng":121.5676759}},{"name":"光明派出所","address":"臺北市北投區泉源路14號","tel":"0228911647","location":{"lat":25.13737,"lng":121.504243}},{"name":"內湖分局","address":"臺北市內湖區民權路6段101號","tel":"0227900505","location":{"lat":25.0692481,"lng":121.5895812}},{"name":"內湖派出所","address":"臺北市內湖區內湖路2段261號","tel":"0227931031","location":{"lat":25.0820921,"lng":121.5901563}},{"name":"公園派出所","address":"臺北市北投區紗帽路110號","tel":"0228610145","location":{"lat":25.1488485,"lng":121.5486058}},{"name":"六張犁派出所","address":"臺北市信義區嘉興街301號","tel":"0227355068","location":{"lat":25.0236626,"lng":121.5550906}},{"name":"北投分局","address":"臺北市北投區中央北路1段1號","tel":"0228914521","location":{"lat":25.1333442,"lng":121.5014312}},{"name":"南昌路派出所","address":"臺北市中正區龍福里南昌路1段7號","tel":"0223218148","location":{"lat":25.0323407,"lng":121.5165628}},{"name":"南海路派出所","address":"臺北市中正區南海路35號","tel":"0223752835","location":{"lat":25.0320412,"lng":121.5139746}},{"name":"南港分局","address":"臺北市南港區向陽路150號","tel":"0227839110","location":{"lat":25.0540372,"lng":121.5948697}},{"name":"南港派出所","address":"臺北市南港區興中路12巷2號","tel":"0227830476","location":{"lat":25.0549008,"lng":121.6071483}},{"name":"博愛路派出所","address":"臺北市中正區博愛路119號","tel":"0223142724","location":{"lat":25.0417823,"lng":121.5115685}},{"name":"同德派出所","address":"臺北市南港區同德路83號","tel":"0227867201","location":{"lat":25.0461086,"lng":121.5856772}},{"name":"吳興街派出所","address":"臺北市信義區吳興街262號","tel":"0227398997","location":{"lat":25.0265991,"lng":121.5639494}},{"name":"和平東路派出所","address":"臺北市大安區和平東路1段143號","tel":"0223218073","location":{"lat":25.0266151,"lng":121.5305091}},{"name":"圓山派出所","address":"臺北市中山區中山北路3段62號","tel":"0225969433","location":{"lat":25.0727549,"lng":121.5237705}},{"name":"士林分局   ","address":"臺北市士林區文林路235號","tel":"0228813856","location":{"lat":25.0934368,"lng":121.5251673}},{"name":"大同分局   ","address":"臺北市大同區錦西街200號","tel":"0225577262","location":{"lat":25.0596014,"lng":121.5151902}},{"name":"大安分局","address":"臺北市大安區仁愛路3段2號","tel":"0223259850","location":{"lat":25.0378992,"lng":121.5332315}},{"name":"大屯派出所","address":"臺北市北投區中和街534號","tel":"0228913971","location":{"lat":25.1455823,"lng":121.4931307}},{"name":"大橋派出所","address":"臺北市大同區延平北路3段2號","tel":"0225945524","location":{"lat":25.0632792,"lng":121.5108456}},{"name":"大湖派出所","address":"臺北市內湖區成功路5段1號","tel":"0227909521","location":{"lat":25.0840919,"lng":121.6013215}},{"name":"大理街派出所","address":"臺北市萬華區大理街99號","tel":"0223063468","location":{"lat":25.0344179,"lng":121.498278}},{"name":"大直派出所","address":"臺北市中山區北安路456號","tel":"0225332984","location":{"lat":25.0795208,"lng":121.5441203}},{"name":"天母派出所","address":"臺北市士林區中山北路7段192號","tel":"0228714110","location":{"lat":25.1250215,"lng":121.5329783}},{"name":"奇岩派出所","address":"臺北市北投區公館路209巷11號","tel":"0228954410","location":{"lat":25.1276307,"lng":121.508055}},{"name":"安和路派出所","address":"臺北市大安區信義路4段216號","tel":"0227025232","location":{"lat":25.0329981,"lng":121.5522301}},{"name":"寧夏路派出所","address":"臺北市大同區錦西街200號","tel":"0225575011","location":{"lat":25.0596014,"lng":121.5151902}},{"name":"山仔后派出所","address":"臺北市士林區格致路39號","tel":"0228611295","location":{"lat":25.1373371,"lng":121.5463598}},{"name":"康定路派出所","address":"臺北市萬華區和平西路3段112號","tel":"0223064226","location":{"lat":25.035091,"lng":121.5004896}},{"name":"康寧派出所","address":"臺北市內湖區金湖路83號","tel":"0287920061","location":{"lat":25.0812892,"lng":121.5974528}},{"name":"康樂派出所","address":"臺北市內湖區康樂街110巷16弄20號","tel":"0226342237","location":{"lat":25.0704412,"lng":121.618335}},{"name":"廈門街派出所","address":"臺北市中正區廈門街43號","tel":"0223684427","location":{"lat":25.0258774,"lng":121.5177062}},{"name":"延平派出所","address":"臺北市大同區延平北路1段86號","tel":"0225564340","location":{"lat":25.0521674,"lng":121.511688}},{"name":"建國路派出所","address":"臺北市中山區民族東路284號","tel":"0225099774","location":{"lat":25.0680164,"lng":121.5359851}},{"name":"建成派出所","address":"臺北市大同區承德路1段80號","tel":"0225585463","location":{"lat":25.0527248,"lng":121.5173413}},{"name":"後港派出所","address":"臺北市士林區福港街151號","tel":"0228829373","location":{"lat":25.0872804,"lng":121.5179566}},{"name":"復興派出所","address":"臺北市文山區木柵路1段54號","tel":"0222367140","location":{"lat":24.9868135,"lng":121.546963}},{"name":"忠孝東路派出所","address":"臺北市中正區忠孝東路2段10號","tel":"0223218656","location":{"lat":25.0436902,"lng":121.5271826}},{"name":"忠孝西路派出所","address":"臺北市中正區公園路15號","tel":"0223142722","location":{"lat":25.0451056,"lng":121.5173216}},{"name":"思源街派出所","address":"臺北市中正區汀州路3段72號","tel":"0223650844","location":{"lat":25.0151157,"lng":121.5320593}},{"name":"指南派出所","address":"臺北市文山區指南路2段177號","tel":"0229382712","location":{"lat":24.9873012,"lng":121.5779495}},{"name":"敦化南路派出所","address":"臺北市大安區敦化南路1段236巷26號","tel":"0227710400","location":{"lat":25.0403716,"lng":121.5469076}},{"name":"文山一分局","address":"臺北市文山區木柵路2段202號","tel":"0229395734","location":{"lat":24.9887827,"lng":121.5635377}},{"name":"文山二分局  ","address":"臺北市文山區景中街2號","tel":"0229313843","location":{"lat":24.9928142,"lng":121.5410406}},{"name":"文德派出所","address":"臺北市內湖區民權東路6段26號","tel":"0227944946","location":{"lat":25.0666045,"lng":121.5789652}},{"name":"文林派出所","address":"臺北市士林區文林路235號","tel":"0228812211","location":{"lat":25.0934368,"lng":121.5251673}},{"name":"新生南路派出所","address":"臺北市大安區仁愛路3段18號","tel":"0223258611","location":{"lat":25.0377882,"lng":121.5341386}},{"name":"昆明街派出所","address":"臺北市萬華區昆明街245號","tel":"0223082353","location":{"lat":25.0378651,"lng":121.5039413}},{"name":"景美派出所","address":"臺北市文山區景中街2號","tel":"0229313459","location":{"lat":24.9928142,"lng":121.5410406}},{"name":"木新派出所","address":"臺北市文山區恆光街45號","tel":"0229372488","location":{"lat":24.9824199,"lng":121.567309}},{"name":"木柵派出所","address":"臺北市文山區木柵路2段202號","tel":"0229397141","location":{"lat":24.9887827,"lng":121.5635377}},{"name":"東園街派出所","address":"臺北市萬華區長泰街130號","tel":"0223033247","location":{"lat":25.0223907,"lng":121.4982367}},{"name":"東湖派出所","address":"臺北市內湖區五分街10號","tel":"0226313350","location":{"lat":25.0674704,"lng":121.6129763}},{"name":"東社派出所","address":"臺北市松山區精忠里敦化北路199巷5之1號","tel":"0227135253","location":{"lat":25.0567317,"lng":121.5514737}},{"name":"松山分局   ","address":"臺北市南京東路4段12號","tel":"0225796508","location":{"lat":25.051286,"lng":121.552394}},{"name":"松山派出所","address":"臺北市松山區八德路4段692號","tel":"0227670446","location":{"lat":25.0499073,"lng":121.57726}},{"name":"桂林路派出所","address":"臺北市萬華區西園路1段156之1號","tel":"0223314823","location":{"lat":25.037218,"lng":121.499347}},{"name":"武昌街派出所","address":"臺北市萬華區西寧南路4號","tel":"0223312212","location":{"lat":25.0479004,"lng":121.5069691}},{"name":"民族路派出所","address":"臺北市大同區重慶北路3段168號","tel":"0225926204","location":{"lat":25.0687993,"lng":121.5134638}},{"name":"民有派出所","address":"臺北市松山區民權東路3段162號","tel":"0227123638","location":{"lat":25.0617921,"lng":121.5481077}},{"name":"民權一派出所","address":"臺北市中山區新生北路2段127之1號","tel":"0225314672","location":{"lat":25.0599549,"lng":121.5279132}},{"name":"民生西路派出所","address":"臺北市大同區保安街47之1號","tel":"0225538587","location":{"lat":25.0592239,"lng":121.512054}},{"name":"永明派出所","address":"臺北市北投區石牌路2段10號","tel":"0228213110","location":{"lat":25.115382,"lng":121.515547}},{"name":"永福派出所","address":"臺北市士林區仰德大道3段49號","tel":"0228616353","location":{"lat":25.1184393,"lng":121.5523639}},{"name":"泉州街派出所","address":"臺北市中正區中華路2段503號","tel":"0223039915","location":{"lat":25.0242892,"lng":121.5120836}},{"name":"港墘派出所","address":"臺北市內湖區內湖路1段550號","tel":"0287518690","location":{"lat":25.0788262,"lng":121.5768044}},{"name":"溪山派出所","address":"臺北市士林區至善路3段263號","tel":"0228411110","location":{"lat":25.1197357,"lng":121.5845271}},{"name":"漢中街派出所","address":"臺北市萬華區漢中街122號","tel":"0223312790","location":{"lat":25.0420955,"lng":121.5073497}},{"name":"潭美派出所","address":"臺北市內湖區新明路324號","tel":"0227917233","location":{"lat":25.0552622,"lng":121.5816447}},{"name":"玉成派出所","address":"臺北市南港區向陽路150號","tel":"0227886958","location":{"lat":25.0540372,"lng":121.5948697}},{"name":"瑞安街派出所","address":"臺北市大安區瑞安街23巷17號","tel":"0227054164","location":{"lat":25.0311288,"lng":121.545045}},{"name":"石牌派出所","address":"臺北市北投區文林北路296號","tel":"0228231513","location":{"lat":25.1099202,"lng":121.5125188}},{"name":"社子派出所","address":"臺北市士林區延平北路6段192號","tel":"0228122720","location":{"lat":25.0895636,"lng":121.5057427}},{"name":"福德街派出所","address":"臺北市信義區福德街198號","tel":"0227273424","location":{"lat":25.037326,"lng":121.5815597}},{"name":"竹子湖派出所","address":"臺北市北投區竹子湖路16號","tel":"0228616082","location":{"lat":25.1674654,"lng":121.5402675}},{"name":"羅斯福路派出所","address":"臺北市大安區羅斯福路4段113巷13號","tel":"0227355761","location":{"lat":25.0111861,"lng":121.5388738}},{"name":"翠山派出所","address":"臺北市士林區中社路1段56號","tel":"0228411423","location":{"lat":25.1081261,"lng":121.5602615}},{"name":"臥龍街派出所","address":"臺北市大安區臥龍街185號","tel":"0227334439","location":{"lat":25.0180065,"lng":121.5518539}},{"name":"臺北市政府警察局","address":"臺北市中正區延平南路96號","tel":"0223313561","location":{"lat":25.0439111,"lng":121.5097688}},{"name":"興隆派出所","address":"臺北市文山區里興隆路2段156號","tel":"0229313842","location":{"lat":25.0015151,"lng":121.5511861}},{"name":"舊莊派出所","address":"臺北市南港區舊莊街1段213號","tel":"0227822492","location":{"lat":25.0384682,"lng":121.622595}},{"name":"芝山岩派出所","address":"臺北市士林區仰德大道1段16號","tel":"0228813194","location":{"lat":25.101122,"lng":121.537886}},{"name":"莒光派出所","address":"臺北市萬華區莒光路171號","tel":"0223064987","location":{"lat":25.0311711,"lng":121.5027308}},{"name":"華江派出所","address":"臺北市萬華區環河南路2段196號","tel":"0223061531","location":{"lat":25.0342898,"lng":121.4931822}},{"name":"萬盛派出所","address":"臺北市文山區羅斯福路5段151號","tel":"0229312502","location":{"lat":25.0038876,"lng":121.5389389}},{"name":"萬芳派出所","address":"臺北市文山區萬芳里萬美街1段50號","tel":"0222391753","location":{"lat":25.0022655,"lng":121.5668969}},{"name":"萬華分局","address":"臺北市萬華區康定路22號","tel":"0223140364","location":{"lat":25.045123,"lng":121.502931}},{"name":"蘭雅派出所","address":"臺北市士林區中山北路6段153號1樓","tel":"0228315001","location":{"lat":25.1065881,"lng":121.5247605}},{"name":"西園路派出所","address":"臺北市萬華區東園街17號","tel":"0223032943","location":{"lat":25.0281128,"lng":121.4956315}},{"name":"西湖派出所","address":"臺北市內湖區瑞光路515號","tel":"0227987505","location":{"lat":25.0791413,"lng":121.5692497}},{"name":"重慶北路派出所","address":"臺北市大同區重慶北路3段320之2號","tel":"0225944741","location":{"lat":25.0753508,"lng":121.5135534}},{"name":"長安東路派出所","address":"臺北市中山區長安東路2段165號","tel":"0227735207","location":{"lat":25.0484504,"lng":121.5359793}},{"name":"長安派出所","address":"臺北市北投區中央北路1段1號","tel":"0228912029","location":{"lat":25.1333442,"lng":121.5014312}},{"name":"長春路派出所","address":"臺北市中山區長春路206號","tel":"0225062289","location":{"lat":25.0546155,"lng":121.5360825}},{"name":"關渡派出所","address":"臺北市北投區大度路3段305號","tel":"0228583864","location":{"lat":25.1229971,"lng":121.4659472}},{"name":"雙連派出所","address":"臺北市大同區民生西路198之1號","tel":"0225565856","location":{"lat":25.057059,"lng":121.516835}},{"name":"青年路派出所","address":"臺北市萬華區萬大路423巷112號","tel":"0223054219","location":{"lat":25.0219057,"lng":121.5021705}},{"name":"三間派出所","address":"臺東縣長濱鄉樟原村10號","tel":"089881027","location":{"lat":23.4129373,"lng":121.4826489}},{"name":"中興派出所","address":"臺東縣臺東市博愛路373號","tel":"089322127","location":{"lat":22.7544034,"lng":121.1460349}},{"name":"公館派出所","address":"臺東縣綠島鄉公館村69號","tel":"089672564","location":{"lat":22.6662623,"lng":121.4970294}},{"name":"初來派出所","address":"臺東縣海端鄉海端村初來路70號","tel":"089931004","location":{"lat":23.1179573,"lng":121.1669521}},{"name":"初鹿派出所","address":"臺東縣卑南鄉初鹿村梅園路83號","tel":"089571126","location":{"lat":22.8609622,"lng":121.0922259}},{"name":"利嘉派出所","address":"臺東縣卑南鄉利嘉村利嘉路617號","tel":"089382819","location":{"lat":22.7748494,"lng":121.0651943}},{"name":"利稻派出所","address":"臺東縣海端鄉利稻村文化路2號","tel":"089938064","location":{"lat":23.1818188,"lng":120.9646866}},{"name":"卑南分駐所","address":"臺東縣卑南鄉賓朗村賓朗路440號","tel":"089223820","location":{"lat":22.8066598,"lng":121.0929101}},{"name":"南王派出所","address":"臺東縣臺東市更生北路624號","tel":"089223817","location":{"lat":22.7848967,"lng":121.1164479}},{"name":"南田派出所","address":"臺東縣達仁鄉安朔村復興路100號","tel":"089702247","location":{"lat":22.2947907,"lng":120.8842733}},{"name":"台坂派出所","address":"臺東縣達仁鄉台阪村1鄰13之2號","tel":"089761047","location":{"lat":22.467714,"lng":120.9147821}},{"name":"向陽派出所","address":"臺東縣海端鄉利稻村向陽路1號","tel":"0988095763","location":{"lat":23.24774,"lng":120.986637}},{"name":"土坂派出所","address":"臺東縣達仁鄉土阪村107號","tel":"089761027","location":{"lat":22.3,"lng":120.883333}},{"name":"多良派出所","address":"臺東縣太麻里鄉多良村大溪262號","tel":"089761368","location":{"lat":22.4627771,"lng":120.9423259}},{"name":"大武分局","address":"臺東縣大武鄉大武村大武街52號","tel":"089791001","location":{"lat":22.358101,"lng":120.905663}},{"name":"大武派出所","address":"臺東縣大武鄉大武村大武街52號","tel":"089791125","location":{"lat":22.358101,"lng":120.905663}},{"name":"太麻里分駐所","address":"臺東縣太麻里鄉泰和村太麻里街142號","tel":"089781134","location":{"lat":22.6103232,"lng":121.0049535}},{"name":"富岡派出所","address":"臺東縣臺東市松江路1段431號","tel":"089281040","location":{"lat":22.7954224,"lng":121.1948659}},{"name":"寧埔派出所","address":"臺東縣長濱鄉寧埔村7號","tel":"089801257","location":{"lat":23.2558863,"lng":121.418789}},{"name":"寶桑派出所","address":"臺東縣臺東市中華路1段276號","tel":"089322126","location":{"lat":22.7560004,"lng":121.1548638}},{"name":"尚武派出所","address":"臺東縣大武鄉尚武村客庄11號","tel":"089791105","location":{"lat":22.340809,"lng":120.893105}},{"name":"崁頂派出所","address":"臺東縣海端鄉坎頂村中福路25號","tel":"089811418","location":{"lat":23.1028073,"lng":121.03351}},{"name":"延平分駐所","address":"臺東縣延平鄉桃源村74號","tel":"089561245","location":{"lat":22.9037569,"lng":121.0819369}},{"name":"建蘭派出所","address":"臺東縣蘭嶼鄉紅頭村50號","tel":"089732650","location":{"lat":22.02554,"lng":121.5524959}},{"name":"忠孝派出所","address":"臺東縣成功鎮成廣路9號","tel":"089871444","location":{"lat":23.1584669,"lng":121.400549}},{"name":"成功分局","address":"臺東縣成功鎮公民路87號","tel":"089851001","location":{"lat":23.0992626,"lng":121.3750684}},{"name":"新化派出所","address":"臺東縣達仁鄉新化村1號","tel":"089791749","location":{"lat":22.3798987,"lng":120.8585789}},{"name":"新豐派出所","address":"臺東縣成功鎮公民路87號","tel":"089851054","location":{"lat":23.0992626,"lng":121.3750684}},{"name":"朗島派出所","address":"臺東縣蘭嶼鄉朗島村13號","tel":"089732131","location":{"lat":22.078808,"lng":121.5295143}},{"name":"東河分駐所","address":"臺東縣東河鄉東河村南東河368號","tel":"089896010","location":{"lat":22.9700934,"lng":121.3041733}},{"name":"東清派出所","address":"臺東縣蘭嶼鄉東清村3號","tel":"089732975","location":{"lat":22.0572965,"lng":121.5649618}},{"name":"東興派出所","address":"臺東縣臺東市中興路6段796號","tel":"089381714","location":{"lat":22.7626665,"lng":121.0497392}},{"name":"森永派出所","address":"臺東縣達仁鄉森永村森永6號","tel":"089702297","location":{"lat":22.2780468,"lng":120.8645881}},{"name":"樟原派出所","address":"臺東縣長濱鄉樟原村10號","tel":"089881027","location":{"lat":23.4129373,"lng":121.4826489}},{"name":"正興派出所","address":"臺東縣金峰鄉正興村51號","tel":"089781364","location":{"lat":22.6046937,"lng":120.9970502}},{"name":"武陵派出所","address":"臺東縣延平鄉武陵村明野路10號","tel":"089551164","location":{"lat":22.970273,"lng":121.1177396}},{"name":"永樂派出所","address":"臺東縣臺東市正氣北路915號","tel":"089227818","location":{"lat":22.7585752,"lng":121.1234905}},{"name":"池上分駐所","address":"臺東縣池上鄉中山路211號","tel":"089862004","location":{"lat":23.1247092,"lng":121.2185922}},{"name":"泰源派出所","address":"臺東縣東河鄉泰源村本部落281號","tel":"089891014","location":{"lat":22.9977903,"lng":121.2856349}},{"name":"海端分駐所","address":"臺東縣海端鄉山界路17號","tel":"089931354","location":{"lat":23.1003196,"lng":121.1766853}},{"name":"溫泉派出所","address":"臺東縣臺東市青海路4段343號","tel":"089512379","location":{"lat":22.7090029,"lng":121.0419295}},{"name":"瑞源派出所","address":"臺東縣鹿野鄉瑞源村文化路8號","tel":"089581134","location":{"lat":22.9571952,"lng":121.1586082}},{"name":"瑞豐派出所","address":"臺東縣鹿野鄉瑞豐村中山路61號","tel":"089811419","location":{"lat":22.978264,"lng":121.1370229}},{"name":"知本派出所","address":"臺東縣臺東市大和路11號","tel":"089512614","location":{"lat":22.7059733,"lng":121.0572202}},{"name":"竹湖派出所","address":"臺東縣長濱鄉寧埔村7號","tel":"089801257","location":{"lat":23.2558863,"lng":121.418789}},{"name":"紅葉派出所","address":"臺東縣延平鄉紅葉村9號","tel":"089561146","location":{"lat":22.885525,"lng":121.065536}},{"name":"綠島分駐所","address":"臺東縣綠島鄉南寮村南寮158號","tel":"089672521","location":{"lat":22.6560719,"lng":121.4827508}},{"name":"美和派出所","address":"臺東縣太麻里鄉美和村美和84之1號","tel":"089512542","location":{"lat":22.68452,"lng":121.0433644}},{"name":"臺東分局","address":"臺東縣臺東市博愛路373號","tel":"089322306","location":{"lat":22.7544034,"lng":121.1460349}},{"name":"臺東縣警察局","address":"臺東縣臺東市中山路268號","tel":"089324534","location":{"lat":22.7560001,"lng":121.1513175}},{"name":"蘭嶼分駐所","address":"臺東縣蘭嶼鄉椰油村椰油31號","tel":"089732011","location":{"lat":22.0497576,"lng":121.5123571}},{"name":"豐里派出所","address":"臺東縣臺東市中華路3段126號","tel":"089327815","location":{"lat":22.736266,"lng":121.121626}},{"name":"達仁分駐所","address":"臺東縣達仁鄉安朔村復興路100號","tel":"089702247","location":{"lat":22.2947907,"lng":120.8842733}},{"name":"都歷派出所","address":"臺東縣成功鎮都歷路46號","tel":"089841290","location":{"lat":23.0253821,"lng":121.330391}},{"name":"都蘭派出所","address":"臺東縣東河鄉都蘭村248號","tel":"089531209","location":{"lat":22.8757741,"lng":121.2289203}},{"name":"金峰分駐所","address":"臺東縣金峰鄉嘉蘭村30號","tel":"089751204","location":{"lat":22.5945109,"lng":120.96259}},{"name":"金崙派出所","address":"臺東縣太麻里鄉金崙村金崙439號","tel":"089771086","location":{"lat":22.5333256,"lng":120.9633015}},{"name":"錦安派出所","address":"臺東縣池上鄉萬安村萬安路12號","tel":"089862344","location":{"lat":23.094446,"lng":121.218253}},{"name":"長濱分駐所","address":"臺東縣長濱鄉長濱村41號","tel":"089831034","location":{"lat":23.3165108,"lng":121.4542176}},{"name":"關山分局","address":"臺東縣關山鎮中正路27號","tel":"089811001","location":{"lat":23.0480227,"lng":121.160723}},{"name":"關山派出所","address":"臺東縣關山鎮中福里中正路27號","tel":"089811284","location":{"lat":23.0480227,"lng":121.160723}},{"name":"電光派出所","address":"臺東縣關山鎮電光里中興路42號","tel":"089951041","location":{"lat":23.0131591,"lng":121.1892538}},{"name":"霧鹿派出所","address":"臺東縣海端鄉霧鹿村霧鹿村1號","tel":"089935024","location":{"lat":23.1733004,"lng":121.0416238}},{"name":"馬蘭派出所","address":"臺東縣臺東市更生路678號","tel":"089226492","location":{"lat":22.7661918,"lng":121.138118}},{"name":"鸞山派出所","address":"臺東縣延平鄉鸞山村19號","tel":"089568079","location":{"lat":22.8993275,"lng":121.15208}},{"name":"鹿野分駐所","address":"臺東縣鹿野鄉中華路59號","tel":"089551114","location":{"lat":22.912429,"lng":121.13589}},{"name":"龍泉派出所","address":"臺東縣海端鄉廣原村龍泉路1號","tel":"089861344","location":{"lat":23.1580036,"lng":121.1909118}},{"name":"三元派出所","address":"桃園縣大溪鎮石園路53號","tel":"033801040","location":{"lat":24.8806919,"lng":121.2652777}},{"name":"三光派出所","address":"桃園縣復興鄉三光村7鄰武道能敢32號","tel":"033912258","location":{"lat":24.6781752,"lng":121.3601027}},{"name":"三和派出所","address":"桃園縣龍潭鄉龍新路三和段1050號","tel":"034794384","location":{"lat":24.8508763,"lng":121.1762863}},{"name":"三層派出所","address":"桃園縣大溪鎮福安里18鄰7號","tel":"033882349","location":{"lat":24.896724,"lng":121.2740212}},{"name":"三民派出所","address":"桃園縣復興鄉三民村水流東路43號","tel":"033825605","location":{"lat":24.9375874,"lng":121.2168466}},{"name":"三菓派出所","address":"桃園縣大園鄉三和路25號","tel":"033936118","location":{"lat":25.0732019,"lng":121.257167}},{"name":"上湖派出所","address":"桃園縣楊梅鎮楊湖路3段239號","tel":"034721721","location":{"lat":24.9126271,"lng":121.0930553}},{"name":"中壢分局","address":"桃園縣中壢市延平路607號","tel":"034221460","location":{"lat":24.9541045,"lng":121.2223471}},{"name":"中壢派出所","address":"桃園縣中壢市延平路607號","tel":"034222030","location":{"lat":24.9541045,"lng":121.2223471}},{"name":"中新派出所","address":"桃園縣大溪鎮大鶯路1479號","tel":"033801853","location":{"lat":24.9250915,"lng":121.3110503}},{"name":"中福派出所","address":"桃園縣中壢市南園二路86號","tel":"034523093","location":{"lat":24.9716018,"lng":121.2318733}},{"name":"中興派出所","address":"桃園縣龍潭鄉武漢路45號","tel":"034797497","location":{"lat":24.8726625,"lng":121.2343289}},{"name":"中路派出所","address":"桃園縣桃園市縣府路51號","tel":"033578385","location":{"lat":24.9931734,"lng":121.2998673}},{"name":"仁愛派出所","address":"桃園縣中壢市華美一路101號","tel":"034563524","location":{"lat":24.9538114,"lng":121.2613232}},{"name":"光華派出所","address":"桃園縣復興鄉華陵村4鄰1號","tel":"033912253","location":{"lat":24.656283,"lng":121.398773}},{"name":"內壢派出所","address":"桃園縣中壢市中華路1段364號","tel":"034553845","location":{"lat":24.9709548,"lng":121.2538183}},{"name":"內柵派出所","address":"桃園縣大溪鎮內柵路1段56號","tel":"033883849","location":{"lat":24.8593448,"lng":121.2812329}},{"name":"八德分局","address":"桃園縣八德市興豐路1216號","tel":"033731907","location":{"lat":24.9382799,"lng":121.308623}},{"name":"八德派出所","address":"桃園縣八德市中山路23號","tel":"033682802","location":{"lat":24.9295865,"lng":121.2848205}},{"name":"北勢派出所","address":"桃園縣平鎮市振平街228號","tel":"034282206","location":{"lat":24.9419446,"lng":121.2208921}},{"name":"南崁派出所","address":"桃園縣蘆竹鄉南崁路179號","tel":"03-3223981","location":{"lat":25.0473907,"lng":121.2936948}},{"name":"南竹派出所","address":"桃園縣蘆竹鄉南竹路2段99號","tel":"033121090","location":{"lat":25.041321,"lng":121.28483}},{"name":"南雅派出所","address":"桃園縣大溪鎮普濟路9號","tel":"033883720","location":{"lat":24.8803015,"lng":121.2872286}},{"name":"同安派出所","address":"桃園縣桃園市大興西路1段153號","tel":"033568289","location":{"lat":25.0143969,"lng":121.3054142}},{"name":"四維派出所","address":"桃園縣八德市重慶街148號","tel":"033662771","location":{"lat":24.9559603,"lng":121.3027551}},{"name":"圳頂派出所","address":"桃園縣大溪鎮公園路46號","tel":"033801287","location":{"lat":24.9048559,"lng":121.283791}},{"name":"坪頂派出所","address":"桃園縣龜山鄉大岡村8號","tel":"033282570","location":{"lat":25.048286,"lng":121.3623893}},{"name":"埔子派出所","address":"桃園縣桃園市文中北路2號","tel":"033353692","location":{"lat":25.0001688,"lng":121.2990701}},{"name":"埔心派出所","address":"桃園縣大園鄉埔心村1號","tel":"033811684","location":{"lat":25.0776196,"lng":121.1771987}},{"name":"埔頂派出所","address":"桃園縣新屋鄉中華南路2段445號","tel":"034772044","location":{"lat":24.9495557,"lng":121.1186649}},{"name":"外社派出所","address":"桃園縣蘆竹鄉山林路2段405號","tel":"033241749","location":{"lat":25.0834926,"lng":121.3041719}},{"name":"大園分局","address":"桃園縣大園鄉中正西路13號","tel":"033862009","location":{"lat":25.0634017,"lng":121.195741}},{"name":"大園派出所","address":"桃園縣大園鄉中正西路13號","tel":"033862804","location":{"lat":25.0634017,"lng":121.195741}},{"name":"大坑派出所","address":"桃園縣龜山鄉大坑路1段876號","tel":"033251310","location":{"lat":25.0261275,"lng":121.3531656}},{"name":"大坡派出所","address":"桃園縣新屋鄉大坡村94號","tel":"034768410","location":{"lat":24.9377952,"lng":120.9893594}},{"name":"大埔派出所","address":"桃園縣龜山鄉文德二路80號","tel":"033291735","location":{"lat":25.0525639,"lng":121.380771}},{"name":"大安派出所","address":"桃園縣八德市和平路頂橋巷25號","tel":"033644106","location":{"lat":24.9703739,"lng":121.3236712}},{"name":"大崙派出所","address":"桃園縣中壢市中正路4段186號","tel":"034982260","location":{"lat":24.9896582,"lng":121.1790309}},{"name":"大林派出所","address":"桃園縣龜山鄉幸福一街38之1號","tel":"033500070","location":{"lat":24.9881756,"lng":121.3357842}},{"name":"大樹派出所","address":"桃園縣桃園市樹仁二街41號","tel":"033622987","location":{"lat":24.978045,"lng":121.3202216}},{"name":"大溪分局","address":"桃園縣大溪鎮普濟路9號","tel":"033887643","location":{"lat":24.8803015,"lng":121.2872286}},{"name":"大竹派出所","address":"桃園縣蘆竹鄉大竹路540號","tel":"033232704","location":{"lat":25.0241944,"lng":121.2594456}},{"name":"奎輝派出所","address":"桃園縣復興鄉奎輝村4鄰37號","tel":"033822960","location":{"lat":24.7976153,"lng":121.331525}},{"name":"宋屋派出所","address":"桃園縣平鎮市延平路2段412號","tel":"034938381","location":{"lat":24.9427384,"lng":121.2064495}},{"name":"富岡派出所","address":"桃園縣楊梅鎮富源街22號","tel":"034721794","location":{"lat":24.9375874,"lng":121.2168466}},{"name":"巴陵派出所","address":"桃園縣復興鄉華陵村9鄰44號","tel":"033912180","location":{"lat":24.6856597,"lng":121.3983328}},{"name":"平鎮分局","address":"桃園縣平鎮市中庸路123號","tel":"034390218","location":{"lat":24.9131511,"lng":121.2075109}},{"name":"平鎮派出所","address":"桃園縣平鎮市中庸路123號","tel":"034391280","location":{"lat":24.9131511,"lng":121.2075109}},{"name":"幼獅派出所","address":"桃園縣楊梅鎮幼獅路1段458號","tel":"034643521","location":{"lat":24.9221044,"lng":121.1825434}},{"name":"廣興派出所","address":"桃園縣八德市廣興路829號","tel":"033775127","location":{"lat":24.9501101,"lng":121.2838266}},{"name":"建安派出所","address":"桃園縣平鎮市金陵路5段108號","tel":"034502331","location":{"lat":24.9091602,"lng":121.2311821}},{"name":"復興分駐所","address":"桃園縣復興鄉中正路2號","tel":"033822604","location":{"lat":24.8142104,"lng":121.350989}},{"name":"慈湖分駐所","address":"桃園縣大溪鎮福安里4鄰13號","tel":"033885891","location":{"lat":24.8996127,"lng":121.2850813}},{"name":"文化派出所","address":"桃園縣中壢市吉林路60號","tel":"034528348","location":{"lat":24.9790362,"lng":121.2452846}},{"name":"新坡派出所","address":"桃園縣觀音鄉中山路2段668號","tel":"034981001","location":{"lat":25.0126933,"lng":121.1362084}},{"name":"新屋分駐所","address":"桃園縣新屋鄉後湖村6鄰7之6號","tel":"034772014","location":{"lat":24.9554939,"lng":121.11612}},{"name":"普仁派出所","address":"桃園縣中壢市日新路20號","tel":"034562912","location":{"lat":24.954059,"lng":121.2386638}},{"name":"景福派出所","address":"桃園縣桃園市民族路110號","tel":"033578385","location":{"lat":24.9926186,"lng":121.3090001}},{"name":"桃園分局","address":"桃園縣桃園市文中北路2號","tel":"033323811","location":{"lat":25.0001688,"lng":121.2990701}},{"name":"桃園縣政府警察局","address":"桃園縣桃園市縣府路3號","tel":"033334400","location":{"lat":24.9930615,"lng":121.3019036}},{"name":"楊梅分局","address":"桃園縣楊梅鎮中山路123號","tel":"034755749","location":{"lat":24.9068576,"lng":121.1457353}},{"name":"楊梅派出所","address":"桃園縣楊梅鎮中山路123號","tel":"034782007","location":{"lat":24.9068576,"lng":121.1457353}},{"name":"榮華派出所","address":"桃園縣復興鄉高義村11鄰卡義蘭2號","tel":"033821016","location":{"lat":24.7391911,"lng":121.347674}},{"name":"武陵派出所","address":"桃園縣桃園市復興路135號","tel":"033364224","location":{"lat":24.9900362,"lng":121.3121146}},{"name":"永安派出所","address":"桃園縣新屋鄉中山西路3段62號","tel":"034861092","location":{"lat":24.9875375,"lng":121.0448349}},{"name":"永福派出所","address":"桃園縣大溪鎮信義路1127號","tel":"033885802","location":{"lat":24.8941561,"lng":121.3240443}},{"name":"溪內派出所","address":"桃園縣復興鄉羅浮村河流2鄰51之2號","tel":"033822958","location":{"lat":24.9375874,"lng":121.2168466}},{"name":"潮音派出所","address":"桃園縣大園鄉北港村9號","tel":"033862314","location":{"lat":25.0518272,"lng":121.1762322}},{"name":"百吉派出所","address":"桃園縣大溪鎮福興里38號","tel":"033885884","location":{"lat":24.910764,"lng":121.2858042}},{"name":"石門派出所","address":"桃園縣龍潭鄉文化路230號","tel":"034712021","location":{"lat":24.842766,"lng":121.2413061}},{"name":"福安派出所","address":"桃園縣大溪鎮福安里猴洞坑19之2號","tel":"033888767","location":{"lat":24.8485676,"lng":121.3026883}},{"name":"竹圍派出所","address":"桃園縣大園鄉竹圍街10號","tel":"033835089","location":{"lat":25.104005,"lng":121.2438005}},{"name":"羅浮派出所","address":"桃園縣復興鄉羅浮村3鄰3號","tel":"033822606","location":{"lat":24.7993318,"lng":121.3655917}},{"name":"聖亭派出所","address":"桃園縣龍潭鄉干城路21號","tel":"034891110","location":{"lat":24.8685991,"lng":121.2076372}},{"name":"自強派出所","address":"桃園縣中壢市榮民路387號","tel":"032854333","location":{"lat":24.9615289,"lng":121.2618322}},{"name":"興國派出所","address":"桃園縣中壢市中豐路88號","tel":"034258325","location":{"lat":24.9625105,"lng":121.2198152}},{"name":"草湳派出所","address":"桃園縣楊梅鎮永美路237號","tel":"034826278","location":{"lat":24.9187093,"lng":121.183523}},{"name":"草漯派出所","address":"桃園縣觀音鄉草漯村路140號","tel":"034830301","location":{"lat":25.0628706,"lng":121.1259123}},{"name":"蘆竹分局","address":"桃園縣蘆竹鄉南崁路175巷10-2號","tel":"032220307","location":{"lat":25.0471635,"lng":121.2932776}},{"name":"觀音分駐所","address":"桃園縣觀音鄉中山路14號","tel":"034732025","location":{"lat":25.0364938,"lng":121.0822633}},{"name":"迴龍派出所","address":"桃園縣龜山鄉龍鳳街32巷6號1樓","tel":"0282006815","location":{"lat":25.0186707,"lng":121.4054196}},{"name":"長興派出所","address":"桃園縣復興鄉長興村16鄰29號","tel":"033822961","location":{"lat":24.8011401,"lng":121.25724}},{"name":"霞雲派出所","address":"桃園縣復興鄉霞雲村6鄰21號","tel":"033822607","location":{"lat":24.816657,"lng":121.3839218}},{"name":"青埔派出所","address":"桃園縣中壢市青埔路1段67號","tel":"034531468","location":{"lat":25.0138935,"lng":121.2105349}},{"name":"青溪派出所","address":"桃園縣桃園市鎮撫街39號","tel":"033332742","location":{"lat":24.9980793,"lng":121.3141739}},{"name":"高平派出所","address":"桃園縣龍潭鄉中豐路高平段281號","tel":"034717204","location":{"lat":24.8358128,"lng":121.2069125}},{"name":"高明派出所","address":"桃園縣八德市永豐路160號","tel":"033771790","location":{"lat":24.9649462,"lng":121.278608}},{"name":"龍安派出所","address":"桃園縣桃園市國豐一街101號","tel":"033601975","location":{"lat":24.9911859,"lng":121.281197}},{"name":"龍岡派出所","address":"桃園縣平鎮市龍南路141號","tel":"034503245","location":{"lat":24.9237684,"lng":121.2472883}},{"name":"龍潭分局","address":"桃園縣龍潭鄉干城路21號","tel":"034890831","location":{"lat":24.8685991,"lng":121.2076372}},{"name":"龍潭派出所","address":"桃園縣龍潭鄉中山村大昌路1段277號","tel":"034792002","location":{"lat":24.8701615,"lng":121.2203651}},{"name":"龍興派出所","address":"桃園縣中壢市龍勇路141號","tel":"034285776","location":{"lat":24.937707,"lng":121.234468}},{"name":"龜山分局","address":"桃園縣龜山鄉萬壽路2段931號","tel":"033292701","location":{"lat":24.9952825,"lng":121.3386049}},{"name":"龜山派出所","address":"桃園縣龜山鄉萬壽路2段931號","tel":"033202554","location":{"lat":24.9952825,"lng":121.3386049}},{"name":"三城派出所","address":"宜蘭縣礁溪鄉礁溪路3段195號","tel":"039881961","location":{"lat":24.8101227,"lng":121.7669743}},{"name":"三星分局","address":"宜蘭縣三星鄉三星路5段6號","tel":"039891564","location":{"lat":24.6667532,"lng":121.6522631}},{"name":"三星派出所","address":"宜蘭縣三星鄉三星路5段6號","tel":"039892561","location":{"lat":24.6667532,"lng":121.6522631}},{"name":"中山派出所","address":"宜蘭縣宜蘭市中山路3段219號","tel":"039323107","location":{"lat":24.7612715,"lng":121.7534561}},{"name":"二城派出所","address":"宜蘭縣頭城鎮青雲路1段145號","tel":"039882654","location":{"lat":24.8388119,"lng":121.7930338}},{"name":"二結派出所","address":"宜蘭縣五結鄉西河路1號","tel":"039653901","location":{"lat":24.705825,"lng":121.767522}},{"name":"五結分駐所","address":"宜蘭縣五結鄉五結中路2段98號","tel":"039504381","location":{"lat":24.68752,"lng":121.7978831}},{"name":"內城派出所","address":"宜蘭縣員山鄉員山路2段235號","tel":"039221996","location":{"lat":24.7150597,"lng":121.6954027}},{"name":"公正派出所","address":"宜蘭縣羅東鎮公正路159號","tel":"039542029","location":{"lat":24.6785266,"lng":121.7693454}},{"name":"冬山分駐所","address":"宜蘭縣冬山鄉冬山路168號","tel":"039591651","location":{"lat":24.667192,"lng":121.771553}},{"name":"利澤派出所","address":"宜蘭縣五結鄉利澤路6號","tel":"039503512","location":{"lat":24.6661155,"lng":121.8233949}},{"name":"南山派出所","address":"宜蘭縣大同鄉埤南巷6號","tel":"039809175","location":{"lat":24.436766,"lng":121.379414}},{"name":"南方澳派出所","address":"宜蘭縣蘇澳鎮漁港路84號","tel":"039963580","location":{"lat":24.5823208,"lng":121.8660971}},{"name":"南澳分駐所","address":"宜蘭縣南澳鄉蘇花路2段373號","tel":"039981120","location":{"lat":24.4657594,"lng":121.803296}},{"name":"員山分駐所","address":"宜蘭縣員山鄉員山路1段205號","tel":"039222015","location":{"lat":24.7452258,"lng":121.7267209}},{"name":"四城派出所","address":"宜蘭縣礁溪鄉吳沙村開蘭路110號2樓","tel":"039284072","location":{"lat":24.7898621,"lng":121.758061}},{"name":"四季派出所","address":"宜蘭縣大同鄉和勳巷12號","tel":"039809435","location":{"lat":24.4875322,"lng":121.4265958}},{"name":"壯圍分駐所","address":"宜蘭縣壯圍鄉壯五路158號","tel":"039382162","location":{"lat":24.7463024,"lng":121.7863702}},{"name":"大同分駐所","address":"宜蘭縣大同鄉朝陽39號","tel":"039801176","location":{"lat":24.677676,"lng":121.608937}},{"name":"大洲派出所","address":"宜蘭縣三星鄉上將路2段468號","tel":"039573517","location":{"lat":24.692992,"lng":121.728869}},{"name":"大湖派出所","address":"宜蘭縣員山鄉大安路120號","tel":"039221995","location":{"lat":24.7364837,"lng":121.6981851}},{"name":"大溪派出所","address":"宜蘭縣頭城鎮濱海路5段187號","tel":"039781205","location":{"lat":24.9414979,"lng":121.900551}},{"name":"大福派出所","address":"宜蘭縣壯圍鄉壯濱路6段200號","tel":"039301994","location":{"lat":24.8003319,"lng":121.8169013}},{"name":"大里派出所","address":"宜蘭縣頭城鎮大里路94號","tel":"039781139","location":{"lat":24.9642014,"lng":121.9214355}},{"name":"大隱派出所","address":"宜蘭縣三星鄉三星路2段350號","tel":"039898910","location":{"lat":24.6674701,"lng":121.70076}},{"name":"太平山檢查哨","address":"宜蘭縣大同鄉太平巷94之3號","tel":"039809860","location":{"lat":24.4972255,"lng":121.5353448}},{"name":"太平山派出所","address":"宜蘭縣大同鄉太平巷94之2號","tel":"039809802","location":{"lat":24.493412,"lng":121.536604}},{"name":"宜蘭分局","address":"宜蘭縣宜蘭市光復路50號","tel":"039359039","location":{"lat":24.7553647,"lng":121.7554871}},{"name":"宜蘭縣政府警察局","address":"宜蘭縣宜蘭市中山路2段167號","tel":"039322271","location":{"lat":24.749175,"lng":121.753859}},{"name":"寒溪派出所","address":"宜蘭縣大同鄉寒溪巷65之2號","tel":"039517465","location":{"lat":24.6106361,"lng":121.6887807}},{"name":"廣興派出所","address":"宜蘭縣冬山鄉廣興路193號","tel":"039512210","location":{"lat":24.6697448,"lng":121.7492566}},{"name":"延平派出所","address":"宜蘭縣宜蘭市東港路22號","tel":"039381784","location":{"lat":24.7504821,"lng":121.772922}},{"name":"忠孝派出所","address":"宜蘭縣壯圍鄉順和路77號","tel":"039301984","location":{"lat":24.7642443,"lng":121.8032313}},{"name":"惠好派出所","address":"宜蘭縣員山鄉尚惠路63號","tel":"039221994","location":{"lat":24.7293022,"lng":121.7291496}},{"name":"成功派出所","address":"宜蘭縣羅東鎮興東南路46號","tel":"039542471","location":{"lat":24.6695712,"lng":121.7706923}},{"name":"新城派出所","address":"宜蘭縣蘇澳鎮中山路2段493號","tel":"039969827","location":{"lat":24.6146611,"lng":121.8136166}},{"name":"新民派出所","address":"宜蘭縣宜蘭市新民路143號","tel":"039323108","location":{"lat":24.7573856,"lng":121.7540182}},{"name":"新生派出所","address":"宜蘭縣宜蘭市中山路5段156號","tel":"039284087","location":{"lat":24.7696611,"lng":121.7568375}},{"name":"明池派出所","address":"宜蘭縣大同鄉明池4號","tel":"039801727","location":{"lat":24.6501559,"lng":121.472913}},{"name":"東澳派出所","address":"宜蘭縣南澳鄉蘇花路3段161號","tel":"039986080","location":{"lat":24.519556,"lng":121.8319873}},{"name":"枕山派出所","address":"宜蘭縣員山鄉永同路3段18號","tel":"039221993","location":{"lat":24.7589487,"lng":121.7187705}},{"name":"武塔派出所","address":"宜蘭縣南澳鄉新溪路5號","tel":"039981902","location":{"lat":24.449398,"lng":121.777231}},{"name":"民族派出所","address":"宜蘭縣宜蘭市三清路33號","tel":"039322223","location":{"lat":24.7559877,"lng":121.7482383}},{"name":"民權派出所","address":"宜蘭縣宜蘭市光復路50號","tel":"039323105","location":{"lat":24.7553647,"lng":121.7554871}},{"name":"清水檢查哨","address":"宜蘭縣大同鄉三星路8段501巷7號","tel":"039894520","location":{"lat":24.618133,"lng":121.631812}},{"name":"港邊派出所","address":"宜蘭縣蘇澳鎮蘇濱路1段195號","tel":"039905608","location":{"lat":24.6118381,"lng":121.852487}},{"name":"澳花派出所","address":"宜蘭縣南澳鄉中央路50號","tel":"039985152","location":{"lat":24.329627,"lng":121.739525}},{"name":"牛鬥派出所","address":"宜蘭縣大同鄉泰雅一路牛鬥巷52號","tel":"039891731","location":{"lat":24.6407974,"lng":121.5696533}},{"name":"碧候派出所","address":"宜蘭縣南澳鄉信義路陽明巷78號","tel":"039981903","location":{"lat":24.468471,"lng":121.791214}},{"name":"礁溪分局","address":"宜蘭縣礁溪鄉中山路2段157號","tel":"039882053","location":{"lat":24.827157,"lng":121.7739415}},{"name":"礁溪派出所","address":"宜蘭縣礁溪鄉中山路2段157號","tel":"039882214","location":{"lat":24.827157,"lng":121.7739415}},{"name":"福山派出所","address":"宜蘭縣三星鄉三星路7段310號","tel":"039893224","location":{"lat":24.661906,"lng":121.6218}},{"name":"福成派出所","address":"宜蘭縣頭城鎮宜三路2段439號","tel":"039771896","location":{"lat":24.8636769,"lng":121.807074}},{"name":"羅東分局","address":"宜蘭縣羅東鎮公正路159號","tel":"039542071","location":{"lat":24.6785266,"lng":121.7693454}},{"name":"美城派出所","address":"宜蘭縣壯圍鄉大福路3段38號","tel":"039303691","location":{"lat":24.7774326,"lng":121.7873332}},{"name":"英士派出所","address":"宜蘭縣大同鄉梵梵72號","tel":"039801325","location":{"lat":24.6133961,"lng":121.52624}},{"name":"蘇澳分局","address":"宜蘭縣蘇澳鎮中山路1段252號","tel":"039951356","location":{"lat":24.59587,"lng":121.844797}},{"name":"蘇澳派出所","address":"宜蘭縣蘇澳鎮中山路1段252號","tel":"039962126","location":{"lat":24.59587,"lng":121.844797}},{"name":"進士派出所","address":"宜蘭縣宜蘭市縣政北路5號","tel":"039252219","location":{"lat":24.731081,"lng":121.761688}},{"name":"開羅派出所","address":"宜蘭縣羅東鎮南昌東街1號","tel":"039542121","location":{"lat":24.6717611,"lng":121.777356}},{"name":"順安派出所","address":"宜蘭縣冬山鄉義成路2段394號","tel":"039581804","location":{"lat":24.6545642,"lng":121.7641414}},{"name":"頭城分駐所","address":"宜蘭縣頭城鎮開蘭路283號","tel":"039771125","location":{"lat":24.86262,"lng":121.82669}},{"name":"馬賽派出所","address":"宜蘭縣蘇澳鎮隘丁路12號","tel":"039902604","location":{"lat":24.618074,"lng":121.8349651}},{"name":"龍潭派出所","address":"宜蘭縣礁溪鄉大坡路135號","tel":"039285514","location":{"lat":24.778047,"lng":121.742258}},{"name":"三崙派出所","address":"雲林縣四湖鄉中山路54號","tel":"057721270","location":{"lat":23.6525172,"lng":120.1572666}},{"name":"下崙派出所","address":"雲林縣口湖鄉中山路59號","tel":"057991084","location":{"lat":23.614969,"lng":120.164119}},{"name":"二崙分駐所","address":"雲林縣二崙鄉中興路3號","tel":"055982595","location":{"lat":23.7708127,"lng":120.4131649}},{"name":"元長分駐所","address":"雲林縣元長鄉中山路124之2號","tel":"057882009","location":{"lat":23.6542957,"lng":120.3129512}},{"name":"公正派出所","address":"雲林縣斗六市大學路1段637號","tel":"055323180","location":{"lat":23.7029557,"lng":120.5541174}},{"name":"北港分局","address":"雲林縣北港鎮文仁路12號","tel":"057832015","location":{"lat":23.5799093,"lng":120.3044368}},{"name":"北港派出所","address":"雲林縣北港鎮義民路49號","tel":"057832064","location":{"lat":23.5680171,"lng":120.302221}},{"name":"北辰派出所","address":"雲林縣北港鎮華勝路399號","tel":"057834082","location":{"lat":23.583762,"lng":120.2991153}},{"name":"口湖分駐所","address":"雲林縣口湖鄉中正路1段280號","tel":"057892014","location":{"lat":23.58528,"lng":120.1808007}},{"name":"古坑分駐所","address":"雲林縣古坑鄉中山路393之1號","tel":"055821324","location":{"lat":23.6544721,"lng":120.5598147}},{"name":"吳厝派出所","address":"雲林縣西螺鎮吳厝里3鄰吳庴51號","tel":"055862484","location":{"lat":23.7450689,"lng":120.427121}},{"name":"和心派出所","address":"雲林縣西螺鎮埔心路146號","tel":"055862544","location":{"lat":23.7984515,"lng":120.4420168}},{"name":"四湖分駐所","address":"雲林縣四湖鄉中山西路205號","tel":"057872031","location":{"lat":23.637363,"lng":120.2198501}},{"name":"四維派出所","address":"雲林縣斗南鎮中和路77號","tel":"055973554","location":{"lat":23.6415861,"lng":120.4818707}},{"name":"土厝派出所","address":"雲林縣水林鄉土厝村17鄰大庄46號","tel":"057852884","location":{"lat":0,"lng":0}},{"name":"土庫分駐所","address":"雲林縣土庫鎮中山路245號","tel":"056622514","location":{"lat":23.6775144,"lng":120.3919494}},{"name":"埒內派出所","address":"雲林縣虎尾鎮埒內里5鄰埒內45號","tel":"056221995","location":{"lat":23.7222634,"lng":120.4464421}},{"name":"埤源派出所","address":"雲林縣西螺鎮埤頭里10鄰埤頭75號","tel":"055862384","location":{"lat":23.7746423,"lng":120.4771397}},{"name":"大埤分駐所","address":"雲林縣大埤鄉中山路102號","tel":"055912040","location":{"lat":23.6459766,"lng":120.4287433}},{"name":"好收派出所","address":"雲林縣北港鎮好收路23號","tel":"057922194","location":{"lat":23.5997958,"lng":120.2790116}},{"name":"安南派出所","address":"雲林縣東勢鄉安南路106號","tel":"056991514","location":{"lat":23.704137,"lng":120.2497811}},{"name":"宏仁派出所","address":"雲林縣水林鄉宏仁路77號","tel":"057851885","location":{"lat":23.6067164,"lng":120.2384022}},{"name":"客厝派出所","address":"雲林縣元長鄉客厝村7鄰客庴63號","tel":"057882764","location":{"lat":23.6256752,"lng":120.3290793}},{"name":"崙背分駐所","address":"雲林縣崙背鄉民權路114號","tel":"056962016","location":{"lat":23.7618074,"lng":120.3551765}},{"name":"崙豐派出所","address":"雲林縣台西鄉崙豐路194號","tel":"056901560","location":{"lat":23.7227476,"lng":120.2130891}},{"name":"建國派出所","address":"雲林縣斗南鎮阿丹里6鄰阿丹1號","tel":"055973724","location":{"lat":23.6531033,"lng":120.5075311}},{"name":"怡美派出所","address":"雲林縣大埤鄉怡美路56號","tel":"055912060","location":{"lat":23.6375644,"lng":120.4041868}},{"name":"惠來派出所","address":"雲林縣虎尾鎮惠來路100號","tel":"056222065","location":{"lat":23.7279835,"lng":120.4885697}},{"name":"斗六分局","address":"雲林縣斗六市中山路88號","tel":"055322598","location":{"lat":23.7078015,"lng":120.5404216}},{"name":"斗六派出所","address":"雲林縣斗六市文化路36號","tel":"055322130","location":{"lat":23.7109955,"lng":120.5451865}},{"name":"斗南分局","address":"雲林縣斗南鎮文昌路500號","tel":"055972005","location":{"lat":23.6792591,"lng":120.4722647}},{"name":"斗南派出所","address":"雲林縣斗南鎮中山路11號","tel":"055972047","location":{"lat":23.6734868,"lng":120.4802784}},{"name":"新光派出所","address":"雲林縣斗南鎮延平路1段222號","tel":"055972540","location":{"lat":23.6908744,"lng":120.4796708}},{"name":"新崙派出所","address":"雲林縣斗南鎮埤麻里6鄰新厝67號","tel":"055973524","location":{"lat":23.6786666,"lng":120.4497316}},{"name":"東勢分駐所","address":"雲林縣東勢鄉東勢東路83號","tel":"056991032","location":{"lat":23.6751772,"lng":120.2553356}},{"name":"東和派出所","address":"雲林縣古坑鄉文化路137號","tel":"055260642","location":{"lat":23.6845377,"lng":120.5677353}},{"name":"東屯派出所","address":"雲林縣虎尾鎮大屯路143號","tel":"056651474","location":{"lat":23.6996414,"lng":120.3795656}},{"name":"林內分駐所","address":"雲林縣林內鄉中山路1號","tel":"055892404","location":{"lat":23.7583301,"lng":120.6162379}},{"name":"林厝派出所","address":"雲林縣四湖鄉中華路25號","tel":"057721265","location":{"lat":23.6717485,"lng":120.1781723}},{"name":"梅林派出所","address":"雲林縣斗六市梅林路392號","tel":"055572493","location":{"lat":23.70284,"lng":120.5980133}},{"name":"椬梧派出所","address":"雲林縣口湖鄉光明路124號","tel":"057907180","location":{"lat":23.5460713,"lng":120.1889809}},{"name":"榴中派出所","address":"雲林縣斗六市石榴路81號","tel":"055573651","location":{"lat":23.7227527,"lng":120.5831967}},{"name":"樟湖派出所","address":"雲林縣古坑鄉樟湖村2鄰樟湖14號","tel":"055811151","location":{"lat":23.6169387,"lng":120.6421888}},{"name":"橋頭派出所","address":"雲林縣麥寮鄉仁德路234號","tel":"056911007","location":{"lat":23.7970686,"lng":120.2743883}},{"name":"水林分駐所","address":"雲林縣水林鄉水林路60號","tel":"057853541","location":{"lat":23.572587,"lng":120.2438481}},{"name":"永光派出所","address":"雲林縣古坑鄉光昌路58號","tel":"055821354","location":{"lat":23.6245401,"lng":120.5540102}},{"name":"永定派出所","address":"雲林縣二崙鄉永定路372號","tel":"055982604","location":{"lat":23.7967276,"lng":120.4166701}},{"name":"油車派出所","address":"雲林縣二崙鄉文化路8號","tel":"055982334","location":{"lat":23.7952026,"lng":120.3901499}},{"name":"溝埧派出所","address":"雲林縣斗六市仁義路89之16號","tel":"055220334","location":{"lat":23.679119,"lng":120.538531}},{"name":"臺西分局","address":"雲林縣台西鄉中山路108號","tel":"056982041","location":{"lat":23.7490402,"lng":120.2582022}},{"name":"臺西派出所","address":"雲林縣台西鄉中山路108號","tel":"056982244","location":{"lat":23.7490402,"lng":120.2582022}},{"name":"草嶺派出所","address":"雲林縣古坑鄉草嶺村7鄰草嶺38號","tel":"055831009","location":{"lat":23.5845993,"lng":120.6940733}},{"name":"莿桐分駐所","address":"雲林縣莿桐鄉中山路170號","tel":"055842025","location":{"lat":23.7591627,"lng":120.5001258}},{"name":"華山派出所","address":"雲林縣古坑鄉華山路50號","tel":"055901317","location":{"lat":23.5954541,"lng":120.5947211}},{"name":"蔦松派出所","address":"雲林縣水林鄉蔦松路200-1號","tel":"057841891","location":{"lat":23.5120696,"lng":120.2278742}},{"name":"虎尾分局","address":"雲林縣虎尾鎮光復路151號","tel":"056331771","location":{"lat":23.7094331,"lng":120.445299}},{"name":"虎尾派出所","address":"雲林縣虎尾鎮光復路151號","tel":"056322118","location":{"lat":23.7094331,"lng":120.445299}},{"name":"褒忠分駐所","address":"雲林縣褒忠鄉中正路274號","tel":"056972040","location":{"lat":23.6946662,"lng":120.3105764}},{"name":"西螺分局","address":"雲林縣西螺鎮公正路213號","tel":"055862301","location":{"lat":23.8011481,"lng":120.461658}},{"name":"西螺派出所","address":"雲林縣西螺鎮公正路213號","tel":"055862014","location":{"lat":23.8011481,"lng":120.461658}},{"name":"豐榮派出所","address":"雲林縣崙背鄉豐榮村1鄰豐榮2號","tel":"056552159","location":{"lat":23.792601,"lng":120.3127331}},{"name":"重興派出所","address":"雲林縣林內鄉重興村16鄰重興70號","tel":"055892514","location":{"lat":23.767978,"lng":120.577431}},{"name":"金湖派出所","address":"雲林縣口湖鄉三民路1號","tel":"057971081","location":{"lat":23.5753306,"lng":120.1477994}},{"name":"長安派出所","address":"雲林縣斗六市長安西路2號","tel":"055517650","location":{"lat":23.7340595,"lng":120.533774}},{"name":"長平派出所","address":"雲林縣斗六市長平路17號","tel":"055327649","location":{"lat":23.7029068,"lng":120.5049315}},{"name":"雲林縣警察局","address":"雲林縣斗六市大學路3段100號","tel":"055338502","location":{"lat":23.6969719,"lng":120.5360149}},{"name":"飛沙派出所","address":"雲林縣四湖鄉內湖村11鄰頂桂山110號","tel":"057723235","location":{"lat":23.6284144,"lng":120.1964522}},{"name":"饒平派出所","address":"雲林縣莿桐鄉饒平路179號","tel":"055842034","location":{"lat":23.7798129,"lng":120.5189343}},{"name":"馬光派出所","address":"雲林縣土庫鎮馬光路64號","tel":"056652364","location":{"lat":23.7058088,"lng":120.3567298}},{"name":"鹿寮派出所","address":"雲林縣元長鄉中央路19號","tel":"057983725","location":{"lat":23.639496,"lng":120.3604607}},{"name":"麥寮分駐所","address":"雲林縣麥寮鄉中山路208號","tel":"056932030","location":{"lat":23.7487064,"lng":120.2557949}},{"name":"龍岩派出所","address":"雲林縣褒忠鄉中新路1號","tel":"056972544","location":{"lat":23.719828,"lng":120.3100971}}]
